     2.10           OBSERVATION DATA    G (GPS)             RINEX VERSION / TYPE 
Just for the use of private program test                    COMMENT
     9    L1    L2    C1    P2    P1    D1    D2    S1    S2# / TYPES OF OBSERV
     1.0000                                                 INTERVAL
                                                            END OF HEADER
 06  1 11 13 15  0.0000000  0  8G 3G18G27G19G16G22G21G15
 -22899739.73449 -17802074.68149  20692916.9774   20692919.8774   20692916.7464
      1529.1624       1191.5584         56.0004         50.0004
 -17719525.13249 -13760158.21648  22047008.9264   22047011.2364   22047009.1584
       837.4004        652.5284         53.0004         46.0004
  -2950886.68948  -2252079.61047  24975044.3614   24975048.8024   24975044.2384
       968.5254        754.6914         42.0004         37.0004
  -8395986.98948  -6501519.05548  23543234.9394   23543236.9214   23543234.6214
      2996.0764       2334.6004         47.0004         42.0004
 -20433042.67449 -15859364.83749  21175673.7554   21175676.3004   21175673.7994
     -2026.1904      -1578.8454         55.0004         49.0004
 -10544024.51649  -8207552.32748  22612410.2474   22612411.0744   22612410.3414
      2867.3154       2234.2844         51.0004         44.0004
 -15427668.56149 -11768409.05748  22130096.9704   22130098.7524   22130096.6354
     -2496.1074      -1945.0024         52.0004         45.0004
 -26084032.04149 -20280893.45249  20375245.4964   20375248.4994   20375244.9754
     -1045.6374       -814.7834         56.0004         50.0004
 06  1 11 13 15  1.0000000  0  8G 3G18G27G19G16G22G21G15
 -22901268.68549 -17803266.07249  20692625.9694   20692628.7844   20692625.8134
      1528.5844       1191.1144         56.0004         50.0004
 -17720362.24249 -13760810.51148  22046849.4864   22046851.6454   22046850.0184
       836.5894        651.9004         53.0004         46.0004
  -2951854.96648  -2252834.11247  24974860.7844   24974865.7034   24974860.5744
       967.9354        754.2364         43.0004         37.0004
  -8398982.90748  -6503853.53448  23542664.7894   23542666.6584   23542663.4954
      2995.5854       2334.2264         47.0004         42.0004
 -20431016.27349 -15857785.82449  21176059.4314   21176061.6674   21176059.1544
     -2026.9134      -1579.4074         55.0004         49.0004
 -10546891.62849  -8209786.44248  22611864.3754   22611865.6114   22611864.9264
      2866.6574       2233.7774         51.0004         44.0004
 -15425172.37549 -11766463.98148  22130572.0234   22130574.1614   22130571.8754
     -2496.4364      -1945.2704         52.0004         45.0004
 -26082986.16649 -20280078.48549  20375444.5044   20375447.5144   20375444.0434
     -1046.2714       -815.2714         56.0004         50.0004
 06  1 11 13 15  2.0000000  0  8G 3G18G27G19G16G22G21G15
 -22902797.12249 -17804457.06149  20692335.0794   20692338.1684   20692335.0434
      1527.9354       1190.5904         56.0004         50.0004
 -17721198.62549 -13761462.23648  22046690.3264   22046692.1764   22046690.6184
       835.7624        651.2234         53.0004         46.0004
  -2952822.58747  -2253588.10147  24974676.4854   24974680.5624   24974676.3394
       967.5354        753.9244         41.0004         37.0004
  -8401978.61248  -6506187.84248  23542094.4804   23542096.4744   23542093.4244
      2995.5704       2334.2004         47.0004         42.0004
 -20428989.23149 -15856206.31049  21176445.2424   21176447.4364   21176445.2244
     -2027.6174      -1579.9644         55.0004         49.0004
 -10549758.26749  -8212020.18848  22611318.6004   22611319.9134   22611319.0054
      2866.2554       2233.4224         51.0004         44.0004
 -15422675.76949 -11764518.57548  22131047.0694   22131048.8894   22131046.7804
     -2496.8874      -1945.6244         52.0004         45.0004
 -26081939.64949 -20279263.01649  20375643.6504   20375646.5414   20375643.0494
     -1047.1074       -815.9364         56.0004         50.0004
 06  1 11 13 15  3.0000000  0  8G 3G18G27G19G16G22G21G15
 -22904325.30249 -17805647.85249  20692044.2574   20692046.9524   20692044.2084
      1528.5384       1191.0814         56.0004         50.0004
 -17722034.52549 -13762113.58548  22046531.2794   22046533.5114   22046531.2414
       836.1654        651.5544         53.0004         46.0004
  -2953789.78747  -2254341.76347  24974492.5314   24974496.5304   24974491.7264
       967.1994        753.6654         41.0004         37.0004
  -8404974.35248  -6508522.18148  23541524.4684   23541526.6864   23541523.3594
      2996.5054       2334.9374         47.0004         42.0004
 -20426961.79249 -15854626.49049  21176831.1094   21176833.2484   21176830.9724
     -2027.1484      -1579.5904         55.0004         49.0004
 -10552624.66549  -8214253.74948  22610773.0664   22610774.6494   22610774.3174
      2866.8584       2233.9224         51.0004         44.0004
 -15420178.98249 -11762573.02748  22131522.3154   22131524.2354   22131522.2164
     -2496.3364      -1945.1944         52.0004         45.0004
 -26080892.75849 -20278447.25849  20375842.8684   20375845.8964   20375842.4744
     -1046.6364       -815.5494         56.0004         50.0004
 06  1 11 13 15  4.0000000  0  8G 3G18G27G19G16G22G21G15
 -22905852.91049 -17806838.19449  20691753.5504   20691756.4104   20691753.5294
      1527.4564       1190.2314         56.0004         50.0004
 -17722869.63049 -13762764.31548  22046372.4774   22046374.4454   22046372.6204
       834.8194        650.5154         53.0004         46.0004
  -2954756.33848  -2255094.91847  24974308.7004   24974312.6554   24974308.1524
       966.8474        753.3934         42.0004         37.0004
  -8407969.79548  -6510856.28948  23540954.4124   23540957.2604   23540954.5604
      2995.4594       2334.1184         47.0004         43.0004
 -20424933.64049 -15853046.11149  21177217.0614   21177219.1814   21177216.7554
     -2028.3874      -1580.5614         55.0004         49.0004
 -10555490.52549  -8216486.88348  22610227.6274   22610230.5564   22610228.1804
      2865.6874       2232.9874         51.0004         44.0004
 -15417681.70549 -11760627.09848  22131997.5734   22131999.4434   22131996.9974
     -2497.3644      -1945.9944         52.0004         45.0004
 -26079845.16949 -20277630.95549  20376042.1994   20376045.2034   20376041.4724
     -1047.8694       -816.5194         56.0004         50.0004
 06  1 11 13 15  5.0000000  0  8G 3G18G27G19G16G22G21G15
 -22907380.25149 -17808028.33249  20691462.9344   20691466.2554   20691463.0114
      1526.8874       1189.7764         56.0004         50.0004
 -17723704.23849 -13763414.65948  22046213.7934   22046215.4924   22046213.8564
       833.9894        649.8484         53.0004         46.0004
  -2955722.43748  -2255847.72147  24974125.5754   24974129.2884   24974124.9644
       965.8834        752.6374         43.0004         37.0004
  -8410965.25248  -6513190.40748  23540384.3144   23540386.6724   23540383.5454
      2995.1294       2333.8584         47.0004         42.0004
 -20422905.08549 -15851465.42049  21177603.0374   21177605.5294   21177602.7924
     -2029.1514      -1581.1524         55.0004         49.0004
 -10558356.14349  -8218719.83548  22609682.3264   22609683.8294   22609683.9494
      2865.2314       2232.6194         51.0004         44.0004
 -15415184.25549 -11758681.03348  22132472.8054   22132474.7664   22132473.0534
     -2497.7544      -1946.3154         52.0004         45.0004
 -26078797.19149 -20276814.34949  20376241.5734   20376244.5994   20376241.1414
     -1048.5394       -817.0454         56.0004         50.0004
 06  1 11 13 15  6.0000000  0  8G 3G18G27G19G16G22G21G15
 -22908907.03349 -17809218.03149  20691172.2924   20691175.2134   20691172.3484
      1526.4034       1189.4074         56.0004         50.0004
 -17724538.06449 -13764064.39548  22046055.1654   22046056.7054   22046055.0284
       833.3244        649.3394         53.0004         46.0004
  -2956687.85048  -2256599.99047  24973942.2624   24973945.2884   24973941.0724
       964.7034        751.7224         42.0004         37.0004
  -8413960.45548  -6515524.32848  23539814.4004   23539816.9134   23539813.9914
      2995.2744       2333.9754         47.0004         42.0004
 -20420875.84649 -15849884.19449  21177989.1424   21177991.6004   21177989.0004
     -2029.6384      -1581.5324         55.0004         49.0004
 -10561221.22649  -8220952.37048  22609137.0514   22609139.1404   22609138.1564
      2864.7704       2232.2994         51.0004         44.0004
 -15412686.33349 -11756734.60148  22132948.1164   22132950.1384   22132947.7044
     -2498.2054      -1946.6524         52.0004         45.0004
 -26077748.53549 -20275997.21549  20376441.0404   20376444.0984   20376440.5824
     -1049.0404       -817.4324         56.0004         50.0004
 06  1 11 13 15  7.0000000  0  8G 3G18G27G19G16G22G21G15
 -22910433.58549 -17810407.55349  20690881.8064   20690884.8464   20690882.0724
      1526.3454       1189.3644         56.0004         50.0004
 -17725371.43849 -13764713.77948  22045896.5934   22045898.7414   22045896.3164
       832.9374        649.0504         53.0004         46.0004
  -2957652.90947  -2257351.98247  24973758.8524   24973761.3034   24973757.4084
       964.4894        751.5544         41.0004         37.0004
  -8416955.70849  -6517858.29348  23539244.4414   23539246.4204   23539243.8224
      2995.2704       2333.9784         48.0004         43.0004
 -20418846.23949 -15848302.68449  21178375.2554   21178377.7784   21178375.2054
     -2029.9504      -1581.7744         55.0004         49.0004
 -10564086.10749  -8223184.74548  22608591.9604   22608593.2374   22608592.1434
      2864.6374       2232.1644         51.0004         44.0004
 -15410188.27249 -11754788.06548  22133423.4954   22133425.9874   22133424.3044
     -2498.2594      -1946.6874         52.0004         45.0004
 -26076699.52949 -20275179.80849  20376640.5604   20376643.7364   20376640.3014
     -1049.2964       -817.6294         56.0004         50.0004
 06  1 11 13 15  8.0000000  0  8G 3G18G27G19G16G22G21G15
 -22911959.62249 -17811596.67249  20690591.3614   20690594.4134   20690591.5144
      1525.7494       1188.8764         56.0004         50.0004
 -17726204.06749 -13765362.57948  22045738.1754   22045740.0324   22045738.0644
       832.3304        648.5624         53.0004         46.0004
  -2958617.33648  -2258103.48347  24973575.0634   24973577.1614   24973573.3604
       964.0094        751.1764         42.0004         37.0004
  -8419950.72349  -6520192.06848  23538674.6434   23538676.6564   23538674.2614
      2994.6914       2333.5064         48.0004         43.0004
 -20416816.00649 -15846720.68449  21178761.4804   21178764.1734   21178761.4684
     -2030.3454      -1582.1034         55.0004         49.0004
 -10566950.51649  -8225416.75148  22608046.9684   22608049.4704   22608047.6834
      2864.1024       2231.7414         51.0004         44.0004
 -15407689.78949 -11752841.19448  22133898.9644   22133900.6844   22133898.0804
     -2498.7034      -1947.0594         52.0004         45.0004
 -26075649.89049 -20274361.90749  20376840.2784   20376843.5174   20376840.0014
     -1049.9944       -818.1904         56.0004         50.0004
 06  1 11 13 15  9.0000000  0  8G 3G18G27G19G16G22G21G15
 -22913485.26949 -17812785.48749  20690301.0934   20690304.1034   20690301.1194
      1525.0164       1188.3134         56.0004         50.0004
 -17727036.08749 -13766010.90548  22045579.7944   22045581.7424   22045579.4334
       831.2994        647.7534         53.0004         46.0004
  -2959581.23748  -2258854.57247  24973391.8174   24973393.0594   24973389.7104
       963.4464        750.7324         42.0004         37.0004
  -8422945.66448  -6522525.78648  23538104.8334   23538106.9174   23538103.9904
      2994.6014       2333.4514         47.0004         42.0004
 -20414785.24949 -15845138.27749  21179147.8484   21179150.4624   21179147.8434
     -2031.4064      -1582.9234         55.0004         49.0004
 -10569814.55849  -8227648.47248  22607502.0154   22607504.3524   22607502.6914
      2863.3674       2231.1964         51.0004         44.0004
 -15405191.01349 -11750894.09548  22134374.3854   22134376.6024   22134373.7434
     -2499.3444      -1947.5474         52.0004         45.0004
 -26074599.73349 -20273543.60349  20377040.0354   20377043.4744   20377039.6084
     -1050.8254       -818.8274         56.0004         50.0004
 06  1 11 13 15 10.0000000  0  8G 3G18G27G19G16G22G21G15
 -22915010.49849 -17813973.97849  20690010.8944   20690013.8304   20690010.9114
      1524.8214       1188.1674         56.0004         50.0004
 -17727867.46849 -13766658.73548  22045421.5414   22045423.1874   22045420.9644
       830.8814        647.4284         53.0004         46.0004
  -2960544.53048  -2259605.18947  24973208.3424   24973209.3964   24973206.9484
       961.5504        749.2544         42.0004         37.0004
  -8425940.46648  -6524859.39548  23537535.1014   23537536.8884   23537535.0764
      2994.5254       2333.3954         47.0004         43.0004
 -20412753.95149 -15843555.44649  21179534.2264   21179537.3684   21179534.2554
     -2031.7654      -1583.2014         54.0004         49.0004
 -10572678.21849  -8229879.89448  22606957.1724   22606958.9364   22606957.2524
      2863.2334       2231.0724         51.0004         44.0004
 -15402691.91349 -11748946.74548  22134849.8754   22134851.8524   22134849.9194
     -2499.3844      -1947.5704         52.0004         45.0004
 -26073549.04249 -20272724.88449  20377239.9374   20377243.2174   20377239.9114
     -1051.0934       -819.0334         56.0004         50.0004
 06  1 11 13 15 11.0000000  0  8G 3G18G27G19G16G22G21G15
 -22916535.36449 -17815162.18749  20689720.7544   20689723.9134   20689720.8984
      1524.8104       1188.1664         56.0004         50.0004
 -17728698.25149 -13767306.09548  22045263.4114   22045265.3924   22045263.2994
       830.6484        647.2654         53.0004         46.0004
  -2961507.43648  -2260355.50447  24973024.9414   24973026.5894   24973023.0604
       962.8504        750.2744         42.0004         37.0004
  -8428935.18848  -6527192.94048  23536965.4694   23536966.5814   23536964.4574
      2994.8694       2333.6644         47.0004         43.0004
 -20410722.15149 -15841972.22449  21179920.6834   21179923.8384   21179921.1264
     -2031.8654      -1583.2754         55.0004         49.0004
 -10575541.53049  -8232111.04848  22606412.4474   22606414.6624   22606412.9474
      2863.1834       2231.0604         51.0004         44.0004
 -15400192.53649 -11746999.18148  22135325.4924   22135327.5794   22135325.2594
     -2499.3584      -1947.5584         52.0004         45.0004
 -26072497.86149 -20271905.78149  20377439.9834   20377443.2854   20377439.7754
     -1051.3724       -819.2504         56.0004         50.0004
 06  1 11 13 15 12.0000000  0  8G 3G18G27G19G16G22G21G15
 -22918059.76949 -17816350.03549  20689430.6774   20689433.5874   20689430.8034
      1524.3514       1187.8154         56.0004         50.0004
 -17729528.34549 -13767952.92048  22045105.5484   22045107.6414   22045105.5424
       829.8994        646.6864         53.0004         46.0004
  -2962469.69348  -2261105.31247  24972841.7434   24972843.3424   24972840.3814
       963.1504        750.5084         42.0004         37.0004
  -8431929.72949  -6529526.34848  23536395.9004   23536397.1924   23536394.3364
      2994.4054       2333.3134         48.0004         43.0004
 -20408689.75049 -15840388.53649  21180307.3274   21180310.4724   21180307.8234
     -2032.6544      -1583.8804         55.0004         49.0004
 -10578404.41149  -8234341.86148  22605867.8744   22605869.7414   22605868.0564
      2862.7574       2230.7074         51.0004         44.0004
 -15397692.77349 -11745051.31148  22135801.1264   22135803.6284   22135800.9764
     -2499.8414      -1947.9064         52.0004         45.0004
 -26071446.09949 -20271086.22549  20377640.1494   20377643.2714   20377639.9534
     -1051.8814       -819.6434         56.0004         50.0004
 06  1 11 13 15 13.0000000  0  8G 3G18G27G19G16G22G21G15
 -22919583.77949 -17817537.57449  20689140.7274   20689143.6984   20689140.6624
      1523.7094       1187.3034         56.0004         50.0004
 -17730357.82949 -13768599.26648  22044947.7424   22044949.0554   22044947.7564
       829.1944        646.1304         53.0004         46.0004
  -2963431.39748  -2261854.69147  24972658.3704   24972660.4774   24972656.8194
       961.9334        749.5574         42.0004         37.0004
  -8434924.16748  -6531859.67648  23535826.1594   23535826.2004   23535824.3024
      2994.0594       2333.0374         47.0004         43.0004
 -20406656.84749 -15838804.45649  21180694.1584   21180697.2404   21180694.3674
     -2033.2144      -1584.3234         55.0004         49.0004
 -10581266.91849  -8236572.38348  22605323.3734   22605324.6134   22605323.3354
      2862.3284       2230.3774         51.0004         44.0004
 -15395192.73149 -11743103.22848  22136276.7944   22136278.4454   22136276.8534
     -2500.1624      -1948.1834         52.0004         45.0004
 -26070393.82549 -20270266.27149  20377840.4504   20377843.7564   20377840.0114
     -1052.5434       -820.1654         56.0004         50.0004
 06  1 11 13 15 14.0000000  0  8G 3G18G27G19G16G22G21G15
 -22921107.38549 -17818724.80149  20688850.8094   20688853.5784   20688850.7224
      1524.0354       1187.5644         56.0004         50.0004
 -17731186.67049 -13769245.11548  22044790.1274   22044791.9064   22044789.6444
       829.0204        645.9854         53.0004         46.0004
  -2964392.56848  -2262603.65547  24972475.3104   24972478.2564   24972474.5044
       961.7874        749.4464         42.0004         37.0004
  -8437918.50649  -6534192.92848  23535256.3754   23535257.4344   23535255.3604
      2994.8984       2333.6894         48.0004         43.0004
 -20404623.39649 -15837219.94949  21181081.1574   21181084.3064   21181081.6504
     -2033.1444      -1584.2554         55.0004         49.0004
 -10584129.05249  -8238802.61448  22604778.8574   22604780.7114   22604778.9494
      2862.4564       2230.4944         51.0004         44.0004
 -15392692.34349 -11741154.87348  22136752.5384   22136754.7944   22136752.8134
     -2500.2164      -1948.2094         52.0004         45.0004
 -26069341.01549 -20269445.90149  20378040.8094   20378043.8754   20378040.7434
     -1052.6284       -820.2274         56.0004         50.0004
 06  1 11 13 15 15.0000000  0  8G 3G18G27G19G16G22G21G15
 -22922630.67049 -17819911.77649  20688560.9944   20688563.9594   20688560.9404
      1522.6794       1186.4904         56.0004         50.0004
 -17732014.98149 -13769890.55248  22044632.5764   22044634.4604   22044631.6244
       827.6184        644.8874         53.0004         46.0004
  -2965353.29848  -2263352.27347  24972292.0434   24972295.0784   24972291.1054
       959.5394        747.6934         42.0004         37.0004
  -8440912.79848  -6536526.14148  23534686.7624   23534687.2374   23534685.7324
      2993.7644       2332.7934         47.0004         43.0004
 -20402589.50049 -15835635.09549  21181468.2624   21181471.1134   21181468.8004
     -2034.6174      -1585.4214         55.0004         49.0004
 -10586990.89949  -8241032.62448  22604234.4114   22604235.8694   22604234.6804
      2861.2584       2229.5574         51.0004         44.0004
 -15390191.76049 -11739206.37048  22137228.2854   22137230.5574   22137227.9994
     -2501.1724      -1948.9704         52.0004         45.0004
 -26068287.77749 -20268625.19449  20378241.1954   20378244.4394   20378240.7464
     -1053.8964       -821.2284         56.0004         50.0004
 06  1 11 13 15 16.0000000  0  8G 3G18G27G19G16G22G21G15
 -22924153.42949 -17821098.34149  20688271.2164   20688274.0364   20688271.2384
      1522.5594       1186.4124         56.0004         50.0004
 -17732842.53749 -13770535.40448  22044475.1664   22044476.8214   22044475.0314
       827.3424        644.6804         53.0004         46.0004
  -2966313.35948  -2264100.37047  24972109.4264   24972113.2594   24972109.4884
       959.3144        747.5074         42.0004         37.0004
  -8443906.88248  -6538859.19148  23534116.9604   23534118.1664   23534115.3924
      2994.4124       2333.3004         47.0004         42.0004
 -20400554.94949 -15834049.73049  21181855.5794   21181858.3244   21181855.9904
     -2034.8934      -1585.6294         55.0004         49.0004
 -10589852.25249  -8243262.24848  22603690.0084   22603691.9664   22603689.2114
      2861.2064       2229.5214         51.0004         44.0004
 -15387690.72349 -11737257.51048  22137704.1514   22137706.7904   22137704.6604
     -2501.1264      -1948.9364         52.0004         45.0004
 -26067233.88349 -20267803.98049  20378441.7494   20378445.0484   20378441.4204
     -1054.1564       -821.4194         55.0004         50.0004
 06  1 11 13 15 17.0000000  0  8G 3G18G27G19G16G22G21G15
 -22925675.87149 -17822284.66249  20687981.4624   20687984.5704   20687981.4194
      1522.3674       1186.2674         56.0004         50.0004
 -17733669.54749 -13771179.82748  22044317.7254   22044319.2614   22044316.9784
       826.8624        644.3174         53.0004         46.0004
  -2967273.00148  -2264848.14447  24971926.6904   24971930.3514   24971927.6554
       959.3404        747.5374         42.0004         37.0004
  -8446900.89848  -6541192.19048  23533546.9844   23533547.4684   23533545.8494
      2994.0464       2333.0344         47.0004         42.0004
 -20398519.95649 -15832464.02249  21182242.9284   21182246.0224   21182243.1504
     -2035.1214      -1585.8064         55.0004         49.0004
 -10592713.31449  -8245491.65048  22603145.7664   22603147.1834   22603145.0504
      2860.9954       2229.3394         51.0004         44.0004
 -15385189.45949 -11735308.47148  22138180.0544   22138182.5944   22138180.5804
     -2501.3434      -1949.0914         52.0004         45.0004
 -26066179.54549 -20266982.41849  20378642.3844   20378645.5204   20378642.1614
     -1054.4074       -821.6164         56.0004         50.0004
 06  1 11 13 15 18.0000000  0  8G 3G18G27G19G16G22G21G15
 -22927197.87649 -17823470.63649  20687691.8204   20687694.7494   20687691.8034
      1521.6154       1185.6664         56.0004         50.0004
 -17734495.90349 -13771823.74148  22044160.4144   22044162.4504   22044160.4494
       825.8644        643.5294         53.0004         46.0004
  -2968232.04148  -2265595.45147  24971743.5324   24971748.1034   24971744.0764
       957.1464        745.8304         42.0004         37.0004
  -8449894.79148  -6543525.09248  23532977.1964   23532978.2744   23532975.8994
      2993.7774       2332.8054         47.0004         42.0004
 -20396484.38549 -15830877.86349  21182630.3644   21182632.9104   21182630.5754
     -2036.0614      -1586.5464         55.0004         49.0004
 -10595573.96249  -8247720.72648  22602601.4964   22602601.3474   22602601.3584
      2860.2224       2228.7224         51.0004         44.0004
 -15382687.85249 -11733359.16948  22138656.1244   22138658.5734   22138656.6564
     -2502.0794      -1949.6904         52.0004         45.0004
 -26065124.66049 -20266160.42849  20378843.1174   20378846.3844   20378843.0084
     -1055.3364       -822.3384         56.0004         50.0004
 06  1 11 13 15 19.0000000  0  8G 3G18G27G19G16G22G21G15
 -22928719.46349 -17824656.28849  20687402.2164   20687405.2494   20687402.0694
      1521.3614       1185.4594         56.0004         50.0004
 -17735321.62349 -13772467.15748  22044003.1364   22044004.7924   22044002.6424
       825.5824        643.2934         53.0004         46.0004
  -2969190.55447  -2266342.34347  24971560.7084   24971565.6944   24971561.3954
       958.5894        746.9604         41.0004         37.0004
  -8452888.55148  -6545857.88648  23532407.2564   23532408.7134   23532405.3854
      2993.8124       2332.8264         47.0004         42.0004
 -20394448.27449 -15829291.28449  21183017.9394   21183020.6084   21183017.6074
     -2036.4714      -1586.8734         55.0004         49.0004
 -10598434.23349  -8249949.50548  22602057.2404   22602057.5184   22602056.7974
      2860.1134       2228.6494         51.0004         44.0004
 -15380185.92049 -11731409.61148  22139132.2734   22139134.7224   22139132.4374
     -2502.1324      -1949.7204         52.0004         45.0004
 -26064069.23449 -20265338.01849  20379043.9794   20379047.1794   20379043.7214
     -1055.6984       -822.6304         56.0004         50.0004
 06  1 11 13 15 20.0000000  0  8G 3G18G27G19G16G22G21G15
 -22930240.67149 -17825841.64449  20687112.6084   20687115.5084   20687112.8304
      1521.6594       1185.7144         56.0004         50.0004
 -17736146.74049 -13773110.10348  22043846.0064   22043847.7944   22043845.9014
       825.4484        643.2044         53.0004         46.0004
  -2970148.57547  -2267088.85147  24971378.3524   24971383.3054   24971379.2374
       958.7094        747.0384         41.0004         37.0004
  -8455882.20749  -6548190.59848  23531837.3164   23531839.2714   23531836.2024
      2994.2484       2333.1794         48.0004         42.0004
 -20392411.66549 -15827704.31749  21183405.6094   21183408.2004   21183405.2864
     -2036.1564      -1586.6044         55.0004         49.0004
 -10601294.14749  -8252178.00248  22601512.9384   22601512.6604   22601511.9364
      2860.3854       2228.8744         51.0004         44.0004
 -15377683.69749 -11729459.82648  22139608.4814   22139610.8444   22139609.3424
     -2501.7214      -1949.3884         52.0004         45.0004
 -26063013.30249 -20264515.21349  20379244.9474   20379248.0994   20379244.8384
     -1055.5984       -822.5394         56.0004         50.0004
 06  1 11 13 15 21.0000000  0  8G 3G18G27G19G16G22G21G15
 -22931761.38349 -17827026.61449  20686823.1494   20686826.4234   20686823.2884
      1520.7094       1184.9614         56.0004         50.0004
 -17736971.13549 -13773752.48848  22043689.0174   22043690.6274   22043688.7154
       824.2814        642.2824         53.0004         46.0004
  -2971105.92148  -2267834.83547  24971196.2014   24971201.0254   24971196.9634
       957.4184        746.0394         42.0004         37.0004
  -8458875.67248  -6550523.16648  23531267.7074   23531269.8634   23531266.7744
      2993.8054       2332.8134         47.0004         42.0004
 -20390374.41349 -15826116.84849  21183793.3754   21183795.9544   21183793.3164
     -2037.1794      -1587.4134         55.0004         49.0004
 -10604153.59449  -8254406.13948  22600968.7514   22600969.7364   22600968.5374
      2859.4624       2228.1404         51.0004         44.0004
 -15375181.06949 -11727509.72748  22140084.7524   22140087.1274   22140084.8974
     -2502.5104      -1950.0114         52.0004         45.0004
 -26061956.76449 -20263691.93549  20379445.9994   20379449.1054   20379445.5204
     -1056.6094       -823.3354         56.0004         50.0004
 06  1 11 13 15 22.0000000  0  8G 3G18G27G19G16G22G21G15
 -22933281.77149 -17828211.33249  20686533.7634   20686536.9754   20686534.1684
      1520.6944       1184.9664         56.0004         50.0004
 -17737794.98049 -13774394.44648  22043532.1754   22043534.8954   22043532.1904
       824.0694        642.1274         53.0004         46.0004
  -2972062.82348  -2268580.47347  24971014.1124   24971019.3294   24971015.2894
       957.4824        746.0884         42.0004         37.0004
  -8461869.09348  -6552855.70548  23530698.0394   23530699.0354   23530697.9514
      2994.1734       2333.1384         47.0004         42.0004
 -20388336.71749 -15824529.03349  21184181.2244   21184183.5024   21184180.8004
     -2037.4884      -1587.6414         55.0004         49.0004
 -10607012.74449  -8256634.04948  22600424.5154   22600425.3434   22600424.4674
      2859.5044       2228.2074         51.0004         44.0004
 -15372678.21049 -11725559.44648  22140561.1594   22140562.9694   22140561.1264
     -2502.4264      -1949.9294         52.0004         45.0004
 -26060899.77249 -20262868.30549  20379647.1854   20379650.4674   20379646.9034
     -1056.7194       -823.4064         56.0004         50.0004
 06  1 11 13 15 23.0000000  0  8G 3G18G27G19G16G22G21G15
 -22934801.72749 -17829395.71249  20686244.4934   20686247.7284   20686244.7244
      1519.5314       1184.0524         56.0004         50.0004
 -17738618.16949 -13775035.89048  22043375.4764   22043377.8894   22043375.7134
       822.7034        641.0634         53.0004         46.0004
  -2973019.18248  -2269325.68747  24970831.9334   24970837.0174   24970832.6204
       955.5704        744.5894         43.0004         37.0004
  -8464862.35348  -6555188.11448  23530128.3714   23530130.0884   23530127.0544
      2992.9584       2332.1734         47.0004         42.0004
 -20386298.46649 -15822940.78749  21184569.1764   21184571.6824   21184568.9814
     -2038.8114      -1588.6864         55.0004         49.0004
 -10609871.49649  -8258861.65148  22599880.1724   22599882.1784   22599879.6354
      2858.3594       2227.3074         51.0004         44.0004
 -15370175.01149 -11723608.90248  22141037.6404   22141040.2774   22141037.8684
     -2503.4814      -1950.7584         52.0004         45.0004
 -26059842.23249 -20262044.24649  20379848.4634   20379851.6874   20379848.2584
     -1058.0134       -824.4284         56.0004         50.0004
 06  1 11 13 15 24.0000000  0  8G 3G18G27G19G16G22G21G15
 -22936321.20549 -17830579.72149  20685955.3344   20685958.6494   20685955.4904
      1518.5904       1183.3034         56.0004         50.0004
 -17739440.65349 -13775676.78548  22043218.8294   22043221.0224   22043218.9044
       821.3694        640.0134         53.0004         46.0004
  -2973974.92047  -2270070.41447  24970650.1034   24970655.1034   24970651.0394
       954.7244        743.9384         41.0004         37.0004
  -8467855.46048  -6557520.40848  23529558.6154   23529560.3864   23529557.6784
      2992.3544       2331.6964         47.0004         42.0004
 -20384259.60649 -15821352.06549  21184957.1854   21184959.2644   21184956.7974
     -2039.8304      -1589.4874         55.0004         49.0004
 -10612729.80149  -8261088.89848  22599335.8974   22599337.8834   22599336.5944
      2857.4954       2226.6024         51.0004         44.0004
 -15367671.42649 -11721658.05848  22141514.1334   22141516.2884   22141513.7904
     -2504.4724      -1951.5624         52.0004         45.0004
 -26058784.09349 -20261219.72149  20380049.7714   20380052.6544   20380049.3804
     -1059.1754       -825.3384         56.0004         50.0004
 06  1 11 13 15 25.0000000  0  8G 3G18G27G19G16G22G21G15
 -22937840.36949 -17831763.48549  20685666.2644   20685669.4054   20685666.2144
      1518.9094       1183.5584         56.0004         50.0004
 -17740262.61549 -13776317.27748  22043062.2944   22043064.8824   22043062.1844
       821.7854        640.3554         52.0004         46.0004
  -2974930.20447  -2270814.78947  24970468.3504   24970472.7194   24970469.2824
       954.5874        743.8164         41.0004         37.0004
  -8470848.51148  -6559852.65548  23528989.0824   23528989.9354   23528988.3844
      2992.7114       2331.9884         47.0004         42.0004
 -20382220.30849 -15819763.00449  21185345.3054   21185347.4614   21185344.7674
     -2039.5234      -1589.2454         55.0004         49.0004
 -10615587.81849  -8263315.92748  22598791.7034   22598793.9494   22598792.2484
      2857.9144       2226.9264         51.0004         44.0004
 -15365167.62549 -11719707.04648  22141990.6094   22141992.4524   22141990.1614
     -2503.8464      -1951.0574         52.0004         45.0004
 -26057725.52249 -20260394.86249  20380251.1694   20380254.3084   20380250.8594
     -1058.7824       -825.0294         56.0004         50.0004
 06  1 11 13 15 26.0000000  0  8G 3G18G27G19G16G22G21G15
 -22939359.11249 -17832946.92149  20685377.2474   20685380.6274   20685377.3844
      1518.4134       1183.1904         56.0004         50.0004
 -17741083.91949 -13776957.25548  22042905.9824   22042908.4264   22042905.8954
       820.8954        639.6664         53.0004         46.0004
  -2975884.94047  -2271558.73947  24970286.3894   24970291.1154   24970287.1364
       954.3324        743.6364         41.0004         37.0004
  -8473841.45348  -6562184.81648  23528419.4854   23528421.2124   23528419.1044
      2992.6904       2331.9744         47.0004         42.0004
 -20380180.45749 -15818173.51149  21185733.4604   21185735.3764   21185732.8904
     -2040.2754      -1589.8174         55.0004         49.0004
 -10618445.43349  -8265542.64348  22598247.5774   22598249.9034   22598248.4074
      2857.2194       2226.3974         50.0004         44.0004
 -15362663.48949 -11717755.77148  22142467.2394   22142469.6334   22142467.2194
     -2504.3204      -1951.4094         52.0004         45.0004
 -26056666.40249 -20259569.57449  20380452.6904   20380455.7414   20380452.5024
     -1059.5174       -825.5964         56.0004         50.0004
 06  1 11 13 15 27.0000000  0  8G 3G18G27G19G16G22G21G15
 -22940877.49749 -17834130.07949  20685088.3064   20685091.6874   20685088.3384
      1518.1334       1182.9524         56.0004         50.0004
 -17741904.63349 -13777596.77248  22042749.8584   22042752.4794   22042749.5534
       820.4384        639.3104         53.0004         46.0004
  -2976839.16247  -2272302.28947  24970104.7844   24970109.8944   24970106.2674
       953.4914        742.9904         40.0004         37.0004
  -8476834.31648  -6564516.91848  23527849.8994   23527850.9444   23527849.6344
      2992.8404       2332.0864         47.0004         42.0004
 -20378140.12349 -15816583.64349  21186121.7264   21186123.8444   21186121.3494
     -2040.4884      -1589.9874         55.0004         49.0004
 -10621302.72549  -8267769.10348  22597703.4664   22597706.2794   22597705.1874
      2857.1404       2226.3474         51.0004         44.0004
 -15360159.08449 -11715804.28448  22142943.8634   22142945.8274   22142943.2984
     -2504.5144      -1951.5684         52.0004         45.0004
 -26055606.81249 -20258743.91949  20380654.3414   20380657.5294   20380653.9194
     -1059.8134       -825.8344         56.0004         50.0004
 06  1 11 13 15 28.0000000  0  8G 3G18G27G19G16G22G21G15
 -22942395.35549 -17835312.82449  20684799.4074   20684802.7844   20684799.5534
      1517.4304       1182.4064         56.0004         50.0004
 -17742724.59349 -13778235.70048  22042593.7424   22042596.0744   22042594.8044
       819.4014        638.4784         53.0004         46.0004
  -2977792.75548  -2273045.34647  24969923.0094   24969927.6974   24969924.7884
       953.1314        742.6944         42.0004         37.0004
  -8479826.93248  -6566848.82248  23527280.4734   23527282.1694   23527279.8284
      2992.3014       2331.6564         47.0004         42.0004
 -20376099.11949 -15814993.24949  21186510.0654   21186512.1454   21186509.8044
     -2041.5054      -1590.7784         55.0004         49.0004
 -10624159.51449  -8269995.17248  22597159.5654   22597162.8464   22597161.1834
      2856.2714       2225.6494         50.0004         44.0004
 -15357654.21849 -11713852.44048  22143420.6114   22143421.8644   22143419.9464
     -2505.3044      -1952.2014         52.0004         45.0004
 -26054546.56449 -20257917.75049  20380856.0624   20380859.3744   20380855.6474
     -1060.7374       -826.5554         56.0004         50.0004
 06  1 11 13 15 29.0000000  0  8G 3G18G27G19G16G22G21G15
 -22943912.90349 -17836495.32649  20684510.5584   20684514.1934   20684510.9244
      1517.1884       1182.2144         56.0004         50.0004
 -17743544.02449 -13778874.21948  22042437.8134   22042440.0674   22042437.8014
       819.0354        638.2134         53.0004         46.0004
  -2978745.90047  -2273788.05647  24969741.2644   24969745.3714   24969743.8354
       952.2984        742.0484         40.0004         37.0004
  -8482819.53648  -6569180.71948  23526710.9544   23526711.4504   23526710.1074
      2992.5204       2331.8344         46.0004         42.0004
 -20374057.68549 -15813402.52249  21186898.5564   21186900.6284   21186897.9714
     -2041.9224      -1591.1154         55.0004         49.0004
 -10627016.02049  -8272221.01648  22596615.7864   22596619.1084   22596617.1594
      2856.0934       2225.5354         50.0004         44.0004
 -15355149.13249 -11711900.42748  22143897.2754   22143899.1104   22143896.6924
     -2505.3814      -1952.2414         52.0004         45.0004
 -26053485.88649 -20257091.24949  20381057.8824   20381061.0434   20381057.5094
     -1061.0894       -826.8244         55.0004         50.0004
 06  1 11 13 15 30.0000000  0  8G 3G18G27G19G16G22G21G15
 -22945430.03749 -17837677.50749  20684221.7774   20684225.0404   20684221.9424
      1516.8924       1181.9984         56.0004         50.0004
 -17744362.80849 -13779512.23248  22042282.1124   22042284.7544   22042282.4864
       818.3944        637.7084         53.0004         46.0004
  -2979698.51048  -2274530.34947  24969559.9554   24969564.4674   24969561.9234
       952.5274        742.2254         42.0004         37.0004
  -8485812.00548  -6571512.51348  23526141.4624   23526142.7504   23526140.6444
      2992.2414       2331.6274         46.0004         42.0004
 -20372015.70749 -15811811.37249  21187287.1004   21187289.4324   21187286.9574
     -2042.4014      -1591.4754         55.0004         49.0004
 -10629872.14649  -8274446.57548  22596072.0744   22596076.2584   22596074.5984
      2855.8954       2225.3794         50.0004         44.0004
 -15352643.73049 -11709948.16448  22144373.9654   22144375.1894   22144374.1414
     -2505.6904      -1952.4794         52.0004         45.0004
 -26052424.67549 -20256264.33249  20381259.7494   20381263.0314   20381259.4444
     -1061.6014       -827.2174         56.0004         50.0004
 06  1 11 13 15 31.0000000  0  8G 3G18G27G19G16G22G21G15
 -22946946.78349 -17838859.38949  20683933.1084   20683936.7134   20683933.5584
      1516.8154       1181.9414         55.0004         50.0004
 -17745180.99749 -13780149.78248  22042126.4524   22042128.6564   22042126.2744
       818.2104        637.5744         53.0004         46.0004
  -2980650.59548  -2275272.23247  24969378.9404   24969383.7394   24969380.8454
       951.7864        741.6474         42.0004         37.0004
  -8488804.39848  -6573844.25448  23525571.9894   23525571.5754   23525570.9274
      2992.8124       2332.0654         47.0004         42.0004
 -20369973.21649 -15810219.82349  21187675.7524   21187677.7714   21187675.4294
     -2042.5144      -1591.5604         55.0004         49.0004
 -10632727.90849  -8276671.84848  22595528.5444   22595532.2424   22595530.4064
      2855.8274       2225.3324         50.0004         44.0004
 -15350138.03749 -11707995.67548  22144850.7284   22144852.7714   22144849.7764
     -2505.5424      -1952.3774         52.0004         45.0004
 -26051362.96249 -20255437.02549  20381461.7194   20381465.2854   20381461.6434
     -1061.6664       -827.2664         56.0004         50.0004
 06  1 11 13 15 32.0000000  0  8G 3G18G27G19G16G22G21G15
 -22948463.08849 -17840040.92649  20683644.5734   20683648.3294   20683644.9974
      1515.7204       1181.0734         56.0004         50.0004
 -17745998.51849 -13780786.81248  22041970.9684   22041973.2924   22041971.2804
       816.8874        636.5274         53.0004         46.0004
  -2981602.07848  -2276013.64747  24969197.8994   24969203.9224   24969199.3144
       950.2774        740.4764         42.0004         37.0004
  -8491796.61148  -6576175.85248  23525002.3344   23525003.2364   23525002.4224
      2991.5354       2331.0474         47.0004         42.0004
 -20367930.15749 -15808627.82749  21188064.5754   21188066.7464   21188064.3204
     -2043.6994      -1592.4964         55.0004         49.0004
 -10635583.25949  -8278896.79948  22594985.3024   22594988.6064   22594986.9454
      2854.8694       2224.5784         51.0004         44.0004
 -15347632.00149 -11706042.91948  22145327.4484   22145329.3854   22145327.2614
     -2506.4934      -1953.1134         52.0004         45.0004
 -26050300.68449 -20254609.27649  20381663.7974   20381667.3234   20381663.7014
     -1062.8804       -828.2264         56.0004         50.0004
 06  1 11 13 15 33.0000000  0  8G 3G18G27G19G16G22G21G15
 -22949978.96849 -17841222.12949  20683356.0704   20683359.5984   20683356.2924
      1515.9824       1181.2904         55.0004         50.0004
 -17746815.38349 -13781423.32748  22041815.6014   22041817.8224   22041815.4204
       816.8514        636.5114         53.0004         46.0004
  -2982553.05147  -2276754.66547  24969016.8254   24969023.2484   24969018.2854
       950.6114        740.7464         41.0004         37.0004
  -8494788.70948  -6578507.35848  23524432.7834   23524433.8324   23524432.1594
      2992.3034       2331.6644         47.0004         42.0004
 -20365886.53849 -15807035.39549  21188453.4214   21188455.5614   21188453.2354
     -2043.4704      -1592.3094         55.0004         49.0004
 -10638438.20349  -8281121.43148  22594442.2584   22594445.2914   22594444.6254
      2854.9614       2224.6544         51.0004         44.0004
 -15345125.62149 -11704089.89948  22145804.3094   22145805.8194   22145805.0084
     -2506.1984      -1952.8744         52.0004         45.0004
 -26049237.85449 -20253781.09749  20381866.0504   20381869.4474   20381866.0444
     -1062.7964       -828.1504         56.0004         50.0004
 06  1 11 13 15 34.0000000  0  8G 3G18G27G19G16G22G21G15
 -22951494.43449 -17842403.01149  20683067.7144   20683071.4544   20683068.1404
      1515.1594       1180.6404         56.0004         50.0004
 -17747631.61549 -13782059.35248  22041660.3164   22041662.4214   22041659.8584
       815.7724        635.6584         53.0004         46.0004
  -2983503.45247  -2277495.23647  24968836.1584   24968842.1954   24968838.1244
       950.2014        740.4184         41.0004         37.0004
  -8497780.67948  -6580838.75848  23523863.3394   23523864.5304   23523864.1494
      2991.4714       2331.0194         47.0004         42.0004
 -20363842.37949 -15805442.54349  21188842.3334   21188844.7244   21188841.8984
     -2044.5654      -1593.1694         55.0004         49.0004
 -10641292.77549  -8283345.77148  22593899.2714   22593902.9954   22593900.9804
      2854.3414       2224.1774         51.0004         44.0004
 -15342618.92449 -11702136.62548  22146281.2094   22146282.8174   22146281.0224
     -2506.9774      -1953.5034         52.0004         45.0004
 -26048174.49749 -20252952.50649  20382068.3324   20382071.9384   20382068.3494
     -1063.7844       -828.9264         56.0004         50.0004
 06  1 11 13 15 35.0000000  0  8G 3G18G27G19G16G22G21G15
 -22953009.44749 -17843583.53949  20682779.4404   20682783.1924   20682779.6674
      1514.3894       1180.0394         56.0004         50.0004
 -17748447.17849 -13782694.85248  22041505.2134   22041507.5164   22041504.7484
       814.7674        634.8684         53.0004         46.0004
  -2984453.28247  -2278235.36247  24968655.7284   24968661.7804   24968657.6554
       949.8184        740.1164         39.0004         37.0004
  -8500772.49448  -6583170.03948  23523294.1024   23523294.9014   23523294.5654
      2991.2974       2330.8714         47.0004         42.0004
 -20361797.64349 -15803849.24049  21189231.3014   21189233.8394   21189231.0074
     -2045.4714      -1593.8764         55.0004         49.0004
 -10644146.91849  -8285569.77948  22593356.3014   22593359.2654   22593358.1814
      2853.5394       2223.5414         50.0004         44.0004
 -15340111.87449 -11700183.07848  22146758.2394   22146760.0154   22146758.9204
     -2507.5904      -1953.9724         52.0004         45.0004
 -26047110.57149 -20252123.47449  20382270.7924   20382274.2094   20382270.8354
     -1064.6454       -829.5964         56.0004         50.0004
 06  1 11 13 15 36.0000000  0  8G 3G18G27G19G16G22G21G15
 -22954524.21849 -17844763.88249  20682491.2624   20682494.9934   20682491.6654
      1514.1954       1179.8924         56.0004         50.0004
 -17749262.27149 -13783329.99148  22041350.1424   22041352.1334   22041349.8844
       814.4404        634.6244         53.0004         46.0004
  -2985402.70747  -2278975.17047  24968474.9544   24968480.9364   24968476.5384
       948.2164        738.8654         41.0004         37.0004
  -8503764.34548  -6585501.35548  23522724.9544   23522726.8174   23522725.8074
      2991.3854       2330.9694         47.0004         42.0004
 -20359752.53049 -15802255.64749  21189620.3634   21189622.8614   21189620.3304
     -2045.8264      -1594.1464         55.0004         49.0004
 -10647000.84949  -8287793.62048  22592813.4404   22592816.1904   22592814.5394
      2853.2034       2223.2764         51.0004         44.0004
 -15337604.67549 -11698229.42248  22147235.2624   22147236.1734   22147235.6444
     -2507.6554      -1954.0264         52.0004         45.0004
 -26046046.27749 -20251294.15449  20382473.2434   20382477.0364   20382473.4074
     -1064.9664       -829.8444         56.0004         50.0004
 06  1 11 13 15 37.0000000  0  8G 3G18G27G19G16G22G21G15
 -22956038.42449 -17845943.78249  20682203.1564   20682206.6574   20682203.4794
      1513.4954       1179.3304         56.0004         50.0004
 -17750076.58449 -13783964.52048  22041195.1494   22041197.5774   22041194.7504
       813.5934        633.9494         53.0004         46.0004
  -2986351.48247  -2279714.47647  24968294.4994   24968300.9384   24968295.6304
       947.2524        738.1124         41.0004         37.0004
  -8506755.91849  -6587832.45048  23522155.9724   23522156.4744   23522155.7854
      2991.0374       2330.6674         48.0004         42.0004
 -20357706.73349 -15800661.52149  21190009.5394   21190012.1304   21190009.5824
     -2046.5464      -1594.7214         55.0004         49.0004
 -10649854.24949  -8290017.04448  22592270.7144   22592272.3704   22592271.3914
      2852.6104       2222.8184         51.0004         44.0004
 -15335097.01349 -11696275.40048  22147712.3484   22147714.3354   22147713.1204
     -2508.3234      -1954.5594         52.0004         45.0004
 -26044981.30949 -20250464.30849  20382675.8454   20382679.4234   20382676.0124
     -1065.8034       -830.5104         56.0004         50.0004
 06  1 11 13 15 38.0000000  0  8G 3G18G27G19G16G22G21G15
 -22957552.32749 -17847123.44549  20681915.1154   20681918.4824   20681915.1584
      1513.5034       1179.3464         56.0004         50.0004
 -17750890.36349 -13784598.63048  22041040.2584   22041042.2164   22041039.8094
       813.2774        633.7114         53.0004         46.0004
  -2987299.81248  -2280453.43447  24968114.3984   24968120.3964   24968115.8374
       948.6484        739.2044         42.0004         37.0004
  -8509747.48048  -6590163.53848  23521587.0654   23521587.7874   23521587.2134
      2991.4124       2330.9664         47.0004         42.0004
 -20355660.50749 -15799067.05949  21190398.9054   21190401.7684   21190398.8984
     -2046.6434      -1594.8024         55.0004         49.0004
 -10652707.37549  -8292240.26248  22591728.1374   22591730.4034   22591728.8334
      2852.7434       2222.9164         51.0004         44.0004
 -15332589.14149 -11694321.21548  22148189.5954   22148191.3894   22148189.7554
     -2508.1164      -1954.3884         52.0004         45.0004
 -26043915.91749 -20249634.13249  20382878.5904   20382882.1634   20382878.7404
     -1065.7914       -830.4914         56.0004         50.0004
 06  1 11 13 15 39.0000000  0  8G 3G18G27G19G16G22G21G15
 -22959065.71249 -17848302.70749  20681627.2224   20681630.7054   20681627.2854
      1513.1054       1179.0474         56.0004         50.0004
 -17751703.40049 -13785232.16248  22040885.4684   22040887.8554   22040885.3204
       812.6654        633.2354         53.0004         46.0004
  -2988247.44047  -2281191.84547  24967934.0194   24967939.8324   24967935.3504
       947.2884        738.1434         41.0004         37.0004
  -8512738.80749  -6592494.44348  23521017.9074   23521018.9254   23521016.9044
      2991.1404       2330.7574         48.0004         42.0004
 -20353613.62949 -15797472.09049  21190788.4034   21190791.0624   21190788.6204
     -2047.1684      -1595.1994         55.0004         49.0004
 -10655560.01149  -8294463.09248  22591185.5674   22591186.9214   22591186.0004
      2852.4224       2222.6684         51.0004         44.0004
 -15330080.84049 -11692366.69748  22148667.0364   22148669.3854   22148667.6484
     -2508.5814      -1954.7354         52.0004         45.0004
 -26042849.88549 -20248803.45849  20383081.5354   20383084.9794   20383081.5314
     -1066.3634       -830.9314         56.0004         50.0004
 06  1 11 13 15 40.0000000  0  8G 3G18G27G19G16G22G21G15
 -22960578.79849 -17849481.73349  20681339.3634   20681342.7174   20681339.6304
      1513.1884       1179.1044         56.0004         50.0004
 -17752515.90849 -13785865.28748  22040730.7584   22040733.2744   22040730.2164
       812.4664        633.0974         53.0004         46.0004
  -2989194.66847  -2281929.94147  24967753.7234   24967759.4194   24967755.0204
       947.1834        738.0554         41.0004         37.0004
  -8515730.12349  -6594825.34048  23520448.9664   23520449.8264   23520449.0724
      2991.6814       2331.1834         48.0004         42.0004
 -20351566.32649 -15795876.78849  21191178.0044   21191180.4424   21191178.3084
     -2047.2714      -1595.2744         55.0004         49.0004
 -10658412.36149  -8296685.69848  22590642.9944   22590643.9104   22590643.0024
      2852.4764       2222.7024         51.0004         44.0004
 -15327572.32249 -11690412.00548  22149144.4404   22149146.4544   22149144.7294
     -2508.3534      -1954.5594         52.0004         45.0004
 -26041783.42649 -20247972.44949  20383284.5224   20383288.0524   20383284.6844
     -1066.4714       -831.0154         56.0004         50.0004
 06  1 11 13 15 41.0000000  0  8G 3G18G27G19G16G22G21G15
 -22962091.41749 -17850660.39849  20681051.6064   20681054.6594   20681051.6354
      1512.2704       1178.3934         56.0004         50.0004
 -17753327.72449 -13786497.87048  22040576.2194   22040578.3604   22040576.2094
       811.2334        632.1154         53.0004         46.0004
  -2990141.28748  -2282667.56347  24967573.7594   24967578.9094   24967574.8334
       945.4614        736.7174         42.0004         37.0004
  -8518721.25749  -6597156.09948  23519880.0884   23519880.5374   23519879.2514
      2991.1354       2330.7544         48.0004         42.0004
 -20349518.42549 -15794281.02249  21191567.7564   21191570.4784   21191567.8084
     -2048.2604      -1596.0494         55.0004         49.0004
 -10661264.27649  -8298907.96748  22590100.5174   22590101.5734   22590099.6774
      2851.5394       2221.9664         51.0004         44.0004
 -15325063.44149 -11688457.03248  22149621.9514   22149625.0704   22149622.3654
     -2509.1744      -1955.2064         52.0004         45.0004
 -26040716.38449 -20247140.98949  20383487.5994   20383491.1514   20383487.7184
     -1067.5724       -831.8744         56.0004         50.0004
 06  1 11 13 15 42.0000000  0  8G 3G18G27G19G16G22G21G15
 -22963603.69149 -17851838.79549  20680763.9274   20680767.1544   20680764.0964
      1511.5694       1177.8424         56.0004         50.0004
 -17754138.97849 -13787130.01648  22040421.8954   22040424.2884   22040422.1434
       810.4354        631.4914         53.0004         46.0004
  -2991087.44247  -2283404.82447  24967393.8684   24967399.2284   24967394.0954
       944.8844        736.2694         41.0004         37.0004
  -8521712.33649  -6599486.81248  23519311.0214   23519310.7624   23519310.7004
      2990.3624       2330.1604         48.0004         42.0004
 -20347470.05349 -15792684.88949  21191957.6784   21191960.2544   21191957.5564
     -2049.1864      -1596.7804         55.0004         49.0004
 -10664115.87849  -8301129.99348  22589558.1014   22589559.3874   22589557.6064
      2850.8924       2221.4644         51.0004         44.0004
 -15322554.31049 -11686501.86348  22150099.5224   22150101.4624   22150099.2674
     -2509.7934      -1955.6824         52.0004         45.0004
 -26039648.88949 -20246309.17749  20383690.8164   20383694.3434   20383691.0124
     -1068.1714       -832.3464         56.0004         50.0004
 06  1 11 13 15 43.0000000  0  8G 3G18G27G19G16G22G21G15
 -22965115.48149 -17853016.81149  20680476.3384   20680479.3554   20680476.1434
      1511.9844       1178.1684         56.0004         50.0004
 -17754949.52149 -13787761.60748  22040267.6364   22040269.5794   22040267.5834
       810.6144        631.6434         53.0004         46.0004
  -2992033.03147  -2284141.64647  24967214.5674   24967219.6484   24967215.0294
       946.7174        737.7004         41.0004         37.0004
  -8524703.22949  -6601817.38048  23518741.8924   23518741.8444   23518740.3584
      2991.3974       2330.9644         48.0004         42.0004
 -20345421.07349 -15791088.28249  21192347.6654   21192350.2694   21192347.4704
     -2048.8844      -1596.5364         55.0004         49.0004
 -10666967.01749  -8303351.66248  22589015.7134   22589016.7384   22589014.8684
      2851.2994       2221.7774         51.0004         44.0004
 -15320044.78149 -11684546.39048  22150577.0894   22150579.0354   22150577.2694
     -2509.2664      -1955.2544         52.0004         45.0004
 -26038580.78049 -20245476.88149  20383894.1844   20383897.3544   20383893.9994
     -1067.9964       -832.2074         56.0004         50.0004
 06  1 11 13 15 44.0000000  0  8G 3G18G27G19G16G22G21G15
 -22966626.83449 -17854194.48849  20680188.8404   20680191.7934   20680188.5564
      1511.1144       1177.4874         56.0004         50.0004
 -17755759.40049 -13788392.68048  22040113.4124   22040115.7804   22040113.1044
       809.4564        630.7434         53.0004         46.0004
  -2992977.97148  -2284877.96347  24967035.1614   24967040.1064   24967035.1224
       944.0714        735.6384         42.0004         37.0004
  -8527693.97149  -6604147.82948  23518172.5884   23518172.3744   23518171.6564
      2990.4994       2330.2534         48.0004         42.0004
 -20343371.52749 -15789491.23449  21192737.8114   21192740.1154   21192737.2014
     -2049.8584      -1597.2934         55.0004         49.0004
 -10669817.74949  -8305573.00648  22588473.4074   22588474.1114   22588473.6054
      2850.5514       2221.1914         51.0004         44.0004
 -15317534.91849 -11682590.64848  22151054.8264   22151056.2424   22151054.3384
     -2510.0384      -1955.8844         52.0004         45.0004
 -26037512.12249 -20244644.16049  20384097.6854   20384100.7664   20384097.3724
     -1068.9574       -832.9594         56.0004         50.0004
 06  1 11 13 15 45.0000000  0  8G 3G18G27G19G16G22G21G15
 -22968137.89249 -17855371.93649  20679901.3254   20679904.0744   20679900.9594
      1511.0864       1177.4724         56.0004         50.0004
 -17756568.75249 -13789023.34648  22039959.2904   22039961.8144   22039959.7384
       809.2634        630.5964         53.0004         46.0004
  -2993922.53548  -2285613.98847  24966855.6264   24966860.0054   24966855.3684
       944.3514        735.8604         42.0004         37.0004
  -8530684.70348  -6606478.26848  23517603.3844   23517603.6844   23517602.1154
      2990.8964       2330.5734         47.0004         42.0004
 -20341321.55549 -15787893.85549  21193128.0234   21193130.0024   21193127.8404
     -2049.9824      -1597.3784         55.0004         49.0004
 -10672668.20449  -8307794.14848  22587931.1644   22587931.7054   22587930.4544
      2850.3874       2221.0544         51.0004         44.0004
 -15315024.84149 -11680634.74248  22151532.5324   22151534.1904   22151532.1064
     -2509.9274      -1955.7764         52.0004         45.0004
 -26036443.05049 -20243811.11849  20384301.1914   20384304.1154   20384300.9504
     -1069.0944       -833.0534         56.0004         50.0004
 06  1 11 13 15 46.0000000  0  8G 3G18G27G19G16G22G21G15
 -22969648.44349 -17856548.98849  20679613.9114   20679616.6264   20679613.6174
      1510.0324       1176.6434         56.0004         50.0004
 -17757377.38149 -13789653.44648  22039805.2874   22039807.4324   22039805.3424
       807.9844        629.5884         52.0004         46.0004
  -2994866.42748  -2286349.48747  24966676.2454   24966680.4104   24966675.3734
       943.3794        735.0984         43.0004         37.0004
  -8533675.22649  -6608808.54748  23517034.3044   23517034.7514   23517033.6974
      2990.1834       2330.0034         48.0004         42.0004
 -20339270.95649 -15786295.98449  21193518.3174   21193520.5174   21193517.5654
     -2051.0894      -1598.2584         55.0004         49.0004
 -10675518.19149  -8310014.91148  22587388.9114   22587389.3184   22587388.2224
      2849.4454       2220.3284         51.0004         45.0004
 -15312514.36249 -11678678.52648  22152010.1864   22152011.8394   22152009.8434
     -2510.9574      -1956.5824         52.0004         45.0004
 -26035373.34749 -20242977.58149  20384504.7954   20384508.1394   20384504.6934
     -1070.3514       -834.0474         56.0004         50.0004
 06  1 11 13 15 47.0000000  0  8G 3G18G27G19G16G22G21G15
 -22971158.65949 -17857725.77949  20679326.5634   20679329.2634   20679326.2694
      1509.7434       1176.4264         56.0004         50.0004
 -17758185.44949 -13790283.10648  22039651.3604   22039654.0574   22039652.1824
       807.5134        629.2444         53.0004         46.0004
  -2995809.85948  -2287084.62847  24966497.4144   24966500.3734   24966496.2844
       942.6684        734.5474         42.0004         37.0004
  -8536665.70049  -6611138.78448  23516465.2794   23516466.6364   23516464.3724
      2990.1904       2329.9984         48.0004         42.0004
 -20337219.89249 -15784697.75249  21193908.6764   21193910.9844   21193908.1294
     -2051.5824      -1598.6354         55.0004         49.0004
 -10678367.88149  -8312235.44448  22586846.5624   22586847.3244   22586845.5254
      2849.2364       2220.1814         51.0004         44.0004
 -15310003.64049 -11676722.12348  22152487.8724   22152489.6654   22152487.1294
     -2511.1854      -1956.7694         52.0004         45.0004
 -26034303.20549 -20242143.70449  20384708.5214   20384711.3094   20384708.0834
     -1070.6674       -834.2834         56.0004         50.0004
 06  1 11 13 15 48.0000000  0  8G 3G18G27G19G16G22G21G15
 -22972668.46249 -17858902.25049  20679039.2444   20679041.9454   20679039.1004
      1510.4394       1176.9674         56.0004         50.0004
 -17758992.88349 -13790912.27848  22039497.5974   22039500.1434   22039498.0194
       807.9534        629.5674         53.0004         46.0004
  -2996752.79948  -2287819.38547  24966318.4704   24966320.7884   24966317.0734
       943.6174        735.2814         43.0004         37.0004
  -8539656.04649  -6613468.92348  23515896.3074   23515897.3204   23515894.6974
      2991.0984       2330.7234         48.0004         42.0004
 -20335168.28049 -15783099.09549  21194299.0764   21194301.0024   21194298.6934
     -2051.0264      -1598.2014         55.0004         49.0004
 -10681217.17449  -8314455.67748  22586304.2314   22586305.4144   22586303.4124
      2850.0474       2220.8214         51.0004         44.0004
 -15307492.59849 -11674765.46748  22152965.5694   22152967.5624   22152965.2124
     -2510.1914      -1956.0024         52.0004         45.0004
 -26033232.53049 -20241309.41249  20384912.3434   20384915.3234   20384911.8944
     -1070.1144       -833.8574         56.0004         50.0004
 06  1 11 13 15 49.0000000  0  8G 3G18G27G19G16G22G21G15
 -22974177.85649 -17860078.40049  20678752.0564   20678754.6084   20678751.6874
      1508.9924       1175.8384         56.0004         50.0004
 -17759799.68949 -13791540.95548  22039344.0654   22039347.2464   22039344.4034
       806.3804        628.3594         52.0004         46.0004
  -2997695.14248  -2288553.68047  24966139.3044   24966141.6624   24966136.4554
       941.7164        733.7984         44.0004         37.0004
  -8542646.27449  -6615798.97048  23515327.3924   23515327.9554   23515327.1564
      2989.9034       2329.7964         48.0004         42.0004
 -20333116.13949 -15781500.02649  21194689.5674   21194691.8084   21194689.1964
     -2052.5424      -1599.3874         55.0004         49.0004
 -10684066.07949  -8316675.60148  22585761.8644   22585762.4064   22585761.5644
      2848.5774       2219.6774         51.0004         44.0004
 -15304981.24149 -11672808.56648  22153443.3984   22153445.2614   22153443.3614
     -2511.6414      -1957.1434         52.0004         45.0004
 -26032161.31549 -20240474.69849  20385116.2674   20385119.0754   20385115.6494
     -1071.6054       -835.0194         56.0004         50.0004
 06  1 11 13 15 50.0000000  0  8G 3G18G27G19G16G22G21G15
 -22975686.74749 -17861254.15749  20678464.9534   20678467.4784   20678464.2654
      1508.1694       1175.1794         56.0004         50.0004
 -17760605.76249 -13792169.06348  22039190.6274   22039193.2144   22039191.2724
       805.3864        627.5644         52.0004         46.0004
  -2998636.87448  -2289287.49447  24965959.8384   24965961.7574   24965956.7294
       941.1574        733.3704         42.0004         37.0004
  -8545636.28648  -6618128.84548  23514758.3944   23514759.7314   23514757.2794
      2989.3894       2329.3904         47.0004         42.0004
 -20331063.36949 -15779900.46449  21195080.1254   21195082.1314   21195079.5694
     -2053.5174      -1600.1564         55.0004         49.0004
 -10686914.50349  -8318895.14448  22585219.5394   22585221.0924   22585219.4244
      2847.6594       2218.9444         51.0004         44.0004
 -15302469.47349 -11670851.34348  22153921.3484   22153922.8854   22153921.3374
     -2512.4414      -1957.7474         52.0004         45.0004
 -26031089.49349 -20239639.51049  20385320.2634   20385323.0414   20385319.5924
     -1072.5004       -835.7214         56.0004         50.0004
 06  1 11 13 15 51.0000000  0  8G 3G18G27G19G16G22G21G15
 -22977195.29849 -17862429.65249  20678177.8754   20678180.7004   20678177.4684
      1508.1334       1175.1754         56.0004         50.0004
 -17761411.26549 -13792796.72848  22039037.4044   22039040.4614   22039037.8034
       804.9834        627.2554         53.0004         46.0004
  -2999578.09548  -2290020.91347  24965780.3694   24965782.7534   24965776.7704
       940.8884        733.1604         42.0004         37.0004
  -8548626.23249  -6620458.66948  23514189.2404   23514190.2484   23514187.9974
      2989.6564       2329.6074         48.0004         42.0004
 -20329010.12649 -15778300.53549  21195470.7234   21195472.9684   21195470.3354
     -2053.7284      -1600.3114         55.0004         49.0004
 -10689762.61549  -8321114.45048  22584677.2954   22584679.2664   22584677.7024
      2847.6554       2218.9394         51.0004         45.0004
 -15299957.45749 -11668893.93148  22154399.3854   22154401.3484   22154399.3204
     -2512.3314      -1957.6654         52.0004         45.0004
 -26030017.19949 -20238803.95849  20385524.3064   20385527.1634   20385523.7574
     -1072.8194       -835.9664         56.0004         50.0004
 06  1 11 13 15 52.0000000  0  8G 3G18G27G19G16G22G21G15
 -22978703.50749 -17863604.88049  20677890.9224   20677893.6024   20677890.5864
      1507.9024       1174.9914         56.0004         50.0004
 -17762216.19149 -13793423.94048  22038884.3134   22038887.2404   22038884.3214
       804.5144        626.8854         53.0004         46.0004
  -3000518.90148  -2290754.00747  24965601.1514   24965603.1064   24965598.1084
       941.2044        733.4034         42.0004         37.0004
  -8551616.12448  -6622788.45948  23513620.2774   23513621.7214   23513618.5054
      2989.7814       2329.7134         47.0004         42.0004
 -20326956.41749 -15776700.24349  21195861.3754   21195863.6534   21195860.9684
     -2053.9464      -1600.4734         55.0004         49.0004
 -10692610.41549  -8323333.51348  22584135.1454   22584137.3154   22584135.5234
      2847.6664       2218.9684         51.0004         44.0004
 -15297445.20049 -11666936.32648  22154877.4834   22154879.0094   22154877.5264
     -2512.2144      -1957.5824         52.0004         45.0004
 -26028944.44449 -20237968.04349  20385728.4244   20385731.2374   20385727.8094
     -1073.1194       -836.1964         56.0004         50.0004
 06  1 11 13 15 53.0000000  0  8G 3G18G27G19G16G22G21G15
 -22980211.21249 -17864779.71549  20677604.0404   20677606.5354   20677603.2824
      1506.8994       1174.1854         56.0004         50.0004
 -17763020.39549 -13794050.59548  22038731.3934   22038733.7894   22038731.6074
       803.2724        625.9104         52.0004         46.0004
  -3001459.01848  -2291486.56547  24965421.8134   24965423.9374   24965419.2644
       938.9314        731.6384         42.0004         37.0004
  -8554605.80948  -6625118.08248  23513051.2224   23513052.1854   23513050.1924
      2989.0354       2329.1154         47.0004         42.0004
 -20324902.07849 -15775099.45749  21196252.2174   21196254.6034   21196252.1614
     -2055.2024      -1601.4774         55.0004         49.0004
 -10695457.73749  -8325552.20748  22583593.1004   22583595.0484   22583593.3764
      2846.6144       2218.1304         51.0004         44.0004
 -15294932.52149 -11664978.39148  22155355.6494   22155357.4804   22155355.9624
     -2513.4214      -1958.5234         52.0004         45.0004
 -26027871.06849 -20237131.64349  20385932.6194   20385935.1384   20385931.9884
     -1074.2374       -837.0844         56.0004         50.0004
 06  1 11 13 15 54.0000000  0  8G 3G18G27G19G16G22G21G15
 -22981718.57349 -17865954.28249  20677317.1514   20677319.9654   20677317.0424
      1507.4374       1174.6274         56.0004         50.0004
 -17763824.03049 -13794676.80548  22038578.6274   22038581.1174   22038579.0784
       803.6404        626.2264         53.0004         46.0004
  -3002398.68448  -2292218.77147  24965242.6864   24965245.6544   24965240.8914
       940.1064        732.5474         42.0004         37.0004
  -8557595.44448  -6627447.66848  23512482.2704   23512483.1624   23512481.3944
      2990.1644       2329.9954         47.0004         42.0004
 -20322847.26649 -15773498.30849  21196643.1124   21196645.8154   21196643.0674
     -2054.7664      -1601.1144         55.0004         49.0004
 -10698304.73049  -8327770.64648  22583051.3214   22583053.2844   22583052.7854
      2847.0744       2218.5024         51.0004         44.0004
 -15292419.59949 -11663020.26948  22155833.9544   22155835.4004   22155833.4504
     -2512.5094      -1957.7934         52.0004         45.0004
 -26026797.23049 -20236294.88649  20386136.8904   20386139.9784   20386136.1534
     -1073.7474       -836.6824         56.0004         50.0004
 06  1 11 13 15 55.0000000  0  8G 3G18G27G19G16G22G21G15
 -22983225.47749 -17867128.49249  20677030.3144   20677032.9284   20677029.9354
      1507.4994       1174.6794         56.0004         50.0004
 -17764626.99149 -13795302.48748  22038425.8884   22038428.1274   22038426.0934
       803.7284        626.2804         53.0004         46.0004
  -3003337.76148  -2292950.52047  24965063.7644   24965067.1474   24965062.4404
       939.8274        732.3394         42.0004         37.0004
  -8560584.90248  -6629777.11548  23511913.2414   23511914.4104   23511912.2434
      2990.3644       2330.1544         47.0004         42.0004
 -20320791.87549 -15771896.70549  21197034.1044   21197037.0654   21197034.1124
     -2054.7334      -1601.0824         54.0004         49.0004
 -10701151.30749  -8329988.75748  22582509.5624   22582512.4124   22582510.0204
      2847.3484       2218.7184         51.0004         44.0004
 -15289906.31949 -11661061.87048  22156312.2324   22156314.0814   22156311.8124
     -2512.4974      -1957.7804         52.0004         45.0004
 -26025722.82049 -20235457.68449  20386341.2574   20386344.1784   20386340.9114
     -1073.7204       -836.6614         56.0004         50.0004
 06  1 11 13 15 56.0000000  0  8G 3G18G27G19G16G22G21G15
 -22984732.02949 -17868302.42949  20676743.5974   20676746.2784   20676743.3334
      1506.1104       1173.5894         56.0004         50.0004
 -17765429.36849 -13795927.71548  22038273.2814   22038275.5784   22038272.8534
       801.8284        624.7934         53.0004         46.0004
  -3004276.36048  -2293681.89447  24964884.8324   24964888.5224   24964884.2194
       939.1184        731.7874         42.0004         37.0004
  -8563574.29348  -6632106.50348  23511344.1964   23511347.4024   23511343.6394
      2989.1624       2329.2094         46.0004         42.0004
 -20318736.00449 -15770294.72849  21197425.1864   21197427.8694   21197425.6044
     -2056.3264      -1602.3254         55.0004         49.0004
 -10703997.54549  -8332206.60448  22581968.1334   22581969.7054   22581968.6394
      2845.8574       2217.5604         51.0004         44.0004
 -15287392.76349 -11659103.25748  22156790.5754   22156792.4814   22156790.2024
     -2514.0604      -1958.9944         52.0004         45.0004
 -26024647.93349 -20234620.11049  20386545.7944   20386548.9464   20386545.3164
     -1075.3604       -837.9444         56.0004         50.0004
 06  1 11 13 15 57.0000000  0  8G 3G18G27G19G16G22G21G15
 -22986238.14549 -17869476.02649  20676456.9554   20676459.8274   20676456.7464
      1504.7384       1172.5064         56.0004         50.0004
 -17766231.08149 -13796552.42748  22038120.7184   22038123.0874   22038120.5744
       800.2124        623.5234         53.0004         46.0004
  -3005214.34548  -2294412.79347  24964706.1724   24964709.7664   24964705.8404
       935.8774        729.2474         42.0004         37.0004
  -8566563.54048  -6634435.78448  23510775.0704   23510777.8274   23510774.6534
      2987.9844       2328.2864         46.0004         42.0004
 -20316679.56949 -15768692.31149  21197816.5174   21197819.3204   21197816.6624
     -2057.8134      -1603.5094         55.0004         49.0004
 -10706843.37849  -8334424.13648  22581426.7864   22581427.9014   22581427.7794
      2844.4304       2216.4264         51.0004         44.0004
 -15284878.85849 -11657144.37348  22157268.9024   22157269.9964   22157268.4924
     -2515.2624      -1959.9544         52.0004         45.0004
 -26023572.49049 -20233782.10249  20386750.4104   20386753.3584   20386749.9504
     -1076.9744       -839.2154         56.0004         50.0004
 06  1 11 13 15 58.0000000  0  8G 3G18G27G19G16G22G21G15
 -22987743.90049 -17870649.34349  20676170.4364   20676173.1744   20676170.4264
      1505.0444       1172.7574         56.0004         50.0004
 -17767032.22249 -13797176.68948  22037968.3214   22037970.8134   22037968.4764
       800.2764        623.5854         53.0004         46.0004
  -3006151.89048  -2295143.34847  24964527.3774   24964532.0164   24964527.9144
       936.7984        729.9724         42.0004         37.0004
  -8569552.72548  -6636765.01848  23510205.9094   23510207.9574   23510205.6614
      2988.7854       2328.9294         47.0004         42.0004
 -20314622.64649 -15767089.51749  21198207.9544   21198210.7464   21198208.0304
     -2057.7784      -1603.4744         55.0004         49.0004
 -10709688.88149  -8336641.41548  22580885.5364   22580886.8884   22580885.5074
      2844.8494       2216.7754         51.0004         44.0004
 -15282364.70249 -11655185.28748  22157747.3894   22157748.9224   22157746.9254
     -2514.7564      -1959.5594         52.0004         45.0004
 -26022496.58049 -20232943.73149  20386955.0774   20386958.1514   20386954.5794
     -1076.7164       -839.0044         56.0004         50.0004
 06  1 11 13 15 59.0000000  0  8G 3G18G27G19G16G22G21G15
 -22989249.10649 -17871822.23149  20675883.9944   20675887.0344   20675883.7264
      1505.5444       1173.1664         56.0004         50.0004
 -17767832.58749 -13797800.35248  22037816.0964   22037818.4194   22037815.5504
       800.5454        623.8104         52.0004         46.0004
  -3007088.72648  -2295873.35147  24964348.9754   24964354.1604   24964350.0804
       937.1314        730.2394         42.0004         37.0004
  -8572541.65448  -6639094.05148  23509636.6734   23509639.7724   23509635.8434
      2989.7384       2329.6814         47.0004         42.0004
 -20312565.04349 -15765486.18949  21198599.4424   21198602.2424   21198599.7454
     -2057.3934      -1603.1584         54.0004         49.0004
 -10712533.85849  -8338858.28448  22580344.3244   22580344.8774   22580344.3694
      2845.2204       2217.0704         51.0004         44.0004
 -15279850.08749 -11653225.84648  22158225.7934   22158227.1364   22158225.4564
     -2514.2074      -1959.1044         52.0004         45.0004
 -26021420.00049 -20232104.83849  20387159.8954   20387163.0094   20387159.5944
     -1076.3504       -838.7044         56.0004         50.0004
 06  1 11 13 16  0.0000000  0  8G 3G18G27G19G16G22G21G15
 -22990754.01449 -17872994.88849  20675597.6204   20675600.3814   20675597.3284
      1505.1144       1172.8144         56.0004         50.0004
 -17768632.43749 -13798423.61048  22037663.9354   22037666.1094   22037663.9434
       799.9544        623.3344         53.0004         46.0004
  -3008025.14047  -2296603.02547  24964170.7774   24964176.5364   24964172.4254
       936.5274        729.7624         41.0004         37.0004
  -8575530.54948  -6641423.05448  23509067.6174   23509071.7514   23509067.1804
      2989.4704       2329.4484         46.0004         42.0004
 -20310507.02649 -15763882.53649  21198991.0364   21198993.8194   21198991.3174
     -2057.9364      -1603.5894         54.0004         49.0004
 -10715378.56649  -8341074.94548  22579803.0044   22579804.3734   22579803.1234
      2845.0004       2216.8564         51.0004         44.0004
 -15277335.26449 -11651266.24248  22158704.2994   22158706.0344   22158704.0934
     -2514.6954      -1959.5084         52.0004         45.0004
 -26020343.01249 -20231265.62749  20387364.7254   20387368.1304   20387364.4294
     -1076.7404       -839.0184         56.0004         50.0004
 06  1 11 13 16  1.0000000  0  8G 3G18G27G19G16G22G21G15
 -22992258.48049 -17874167.19949  20675311.2354   20675314.0694   20675311.2874
      1504.2144       1172.1204         56.0004         50.0004
 -17769431.61249 -13799046.34348  22037511.8214   22037513.4284   22037511.4144
       798.6974        622.3564         53.0004         46.0004
  -3008961.00748  -2297332.27447  24963992.7784   24963998.9104   24963994.2014
       935.2254        728.7434         42.0004         37.0004
  -8578519.30748  -6643751.95048  23508498.6754   23508502.1464   23508499.9964
      2988.6114       2328.7694         46.0004         42.0004
 -20308448.43749 -15762278.44149  21199382.7294   21199385.6194   21199382.8024
     -2058.9414      -1604.3674         55.0004         49.0004
 -10718222.85949  -8343291.27148  22579261.7744   22579262.3754   22579261.7114
      2844.1094       2216.2014         51.0004         44.0004
 -15274820.10549 -11649306.37948  22159182.9174   22159185.3984   22159182.4764
     -2515.4774      -1960.1124         52.0004         45.0004
 -26019265.46449 -20230425.98149  20387569.7464   20387573.0334   20387569.7674
     -1077.9204       -839.9384         56.0004         50.0004
 06  1 11 13 16  2.0000000  0  8G 3G18G27G19G16G22G21G15
 -22993762.58449 -17875339.22749  20675025.0314   20675027.9004   20675024.9074
      1504.3414       1172.2064         56.0004         50.0004
 -17770230.22949 -13799668.64048  22037359.7154   22037362.3334   22037360.0414
       798.7604        622.4104         53.0004         46.0004
  -3009896.35748  -2298061.11947  24963814.7824   24963820.3134   24963815.9264
       935.5114        728.9724         42.0004         37.0004
  -8581507.99748  -6646080.79548  23507929.9334   23507932.5244   23507929.7484
      2988.8674       2328.9784         46.0004         42.0004
 -20306389.36549 -15760673.96849  21199774.5954   21199777.3444   21199774.9584
     -2058.9194      -1604.3584         55.0004         49.0004
 -10721066.82949  -8345507.34948  22578720.5734   22578722.4114   22578720.4084
      2844.2954       2216.3264         51.0004         44.0004
 -15272304.69049 -11647346.31748  22159661.5404   22159663.7184   22159661.9764
     -2515.1244      -1959.8364         52.0004         45.0004
 -26018187.44149 -20229585.96349  20387774.8324   20387778.3214   20387774.8214
     -1077.8464       -839.8854         56.0004         50.0004
 06  1 11 13 16  3.0000000  0  8G 3G18G27G19G16G22G21G15
 -22995266.24549 -17876510.91049  20674738.8654   20674741.6224   20674738.8284
      1503.2584       1171.3674         56.0004         50.0004
 -17771028.15549 -13800290.39848  22037207.8334   22037210.4664   22037208.0324
       797.2504        621.2234         53.0004         46.0004
  -3010831.15548  -2298789.53447  24963636.9264   24963642.7484   24963638.1574
       933.8244        727.6524         42.0004         37.0004
  -8584496.51348  -6648409.50848  23507361.2974   23507364.8404   23507361.3354
      2988.4624       2328.6704         46.0004         42.0004
 -20304329.71749 -15759069.05049  21200166.5584   21200169.3074   21200167.0384
     -2060.0494      -1605.2324         54.0004         49.0004
 -10723910.36749  -8347723.08848  22578179.4424   22578180.3974   22578179.1974
      2843.1434       2215.4454         51.0004         44.0004
 -15269788.89849 -11645385.95648  22160140.2804   22160142.3474   22160139.7554
     -2516.1844      -1960.6564         52.0004         45.0004
 -26017108.84849 -20228745.50049  20387980.0364   20387983.3754   20387980.0404
     -1079.1324       -840.8844         56.0004         50.0004
 06  1 11 13 16  4.0000000  0  8G 3G18G27G19G16G22G21G15
 -22996769.46349 -17877682.24849  20674452.7584   20674455.8644   20674452.5284
      1503.4844       1171.5594         56.0004         50.0004
 -17771825.42649 -13800911.64948  22037055.9804   22037058.6934   22037056.1684
       797.4534        621.4104         53.0004         46.0004
  -3011765.34548  -2299517.47747  24963459.4524   24963464.8474   24963461.5614
       934.9854        728.5564         42.0004         37.0004
  -8587484.88648  -6650738.10548  23506792.7214   23506795.7864   23506792.6874
      2988.5554       2328.7404         46.0004         42.0004
 -20302269.49849 -15757463.68549  21200558.7614   21200561.5404   21200558.9914
     -2060.1074      -1605.2734         54.0004         49.0004
 -10726753.50049  -8349938.51648  22577638.3774   22577638.8644   22577638.9044
      2843.4034       2215.6254         51.0004         44.0004
 -15267272.78349 -11643425.35348  22160619.0554   22160620.6434   22160618.9774
     -2515.8584      -1960.3854         52.0004         45.0004
 -26016029.70849 -20227904.61149  20388185.3174   20388188.8214   20388185.2644
     -1078.9594       -840.7434         55.0004         50.0004
 06  1 11 13 16  5.0000000  0  8G 3G18G27G19G16G22G21G15
 -22998272.31849 -17878853.30449  20674166.8334   20674169.8064   20674166.6284
      1503.3294       1171.4384         56.0004         50.0004
 -17772622.10549 -13801532.43748  22036904.3134   22036906.7824   22036904.1854
       797.1054        621.1344         52.0004         46.0004
  -3012699.06448  -2300245.05047  24963281.7774   24963286.4834   24963282.8594
       934.9184        728.5164         42.0004         38.0004
  -8590473.19648  -6653066.65048  23506224.0364   23506227.5044   23506223.3714
      2988.9964       2329.0884         46.0004         42.0004
 -20300208.80449 -15755857.94849  21200951.0294   21200953.5444   21200951.0874
     -2060.2134      -1605.3574         55.0004         49.0004
 -10729596.29649  -8352153.67948  22577097.3634   22577099.1634   22577096.6184
      2843.3244       2215.5894         51.0004         44.0004
 -15264756.40349 -11641464.54048  22161097.8814   22161099.8434   22161097.8734
     -2515.7064      -1960.2714         52.0004         45.0004
 -26014950.08449 -20227063.34649  20388390.7294   20388394.3304   20388390.8414
     -1079.1794       -840.9124         56.0004         50.0004
 06  1 11 13 16  6.0000000  0  8G 3G18G27G19G16G22G21G15
 -22999774.77549 -17880024.05049  20673880.9564   20673883.4564   20673880.7004
      1502.3604       1170.6744         56.0004         50.0004
 -17773418.15449 -13802152.73648  22036752.8754   22036755.3204   22036752.8814
       795.7354        620.0604         53.0004         46.0004
  -3013632.24348  -2300972.20547  24963104.0824   24963109.0464   24963104.3544
       933.3714        727.2994         42.0004         37.0004
  -8593461.37948  -6655395.09948  23505655.4254   23505658.8734   23505654.4714
      2988.3424       2328.5924         46.0004         42.0004
 -20298147.58649 -15754251.80449  21201343.2894   21201345.5904   21201343.4384
     -2061.4014      -1606.2794         55.0004         49.0004
 -10732438.70849  -8354368.54448  22576556.5444   22576557.2454   22576555.8804
      2842.2064       2214.7104         51.0004         44.0004
 -15262239.70049 -11639503.46848  22161576.8084   22161578.8844   22161576.3434
     -2516.9184      -1961.2304         52.0004         45.0004
 -26013869.93949 -20226221.67349  20388596.3194   20388599.5884   20388596.5124
     -1080.3964       -841.8604         56.0004         50.0004
 06  1 11 13 16  7.0000000  0  8G 3G18G27G19G16G22G21G15
 -23001276.79549 -17881194.45549  20673595.1544   20673598.0914   20673594.8244
      1502.1484       1170.5064         56.0004         50.0004
 -17774213.55849 -13802772.52948  22036601.3674   22036603.9794   22036601.5524
       795.3914        619.7894         52.0004         46.0004
  -3014564.86247  -2301698.92047  24962926.7784   24962931.3684   24962927.0834
       932.5654        726.6764         41.0004         38.0004
  -8596449.41648  -6657723.43748  23505086.7764   23505089.4804   23505087.8984
      2988.0654       2328.3574         46.0004         42.0004
 -20296085.80449 -15752645.22149  21201735.6704   21201738.0604   21201735.5794
     -2061.7064      -1606.5184         54.0004         49.0004
 -10735280.72249  -8356583.09448  22576015.8024   22576016.9604   22576014.9024
      2842.0754       2214.5904         51.0004         44.0004
 -15259722.67149 -11637542.14748  22162055.7364   22162057.6464   22162056.0134
     -2516.9364      -1961.2494         52.0004         45.0004
 -26012789.24449 -20225379.57349  20388802.0434   20388805.4994   20388802.2584
     -1080.6554       -842.0664         56.0004         50.0004
 06  1 11 13 16  8.0000000  0  8G 3G18G27G19G16G22G21G15
 -23002778.33649 -17882364.48749  20673309.4124   20673312.3494   20673308.9304
      1501.0244       1169.6294         56.0004         50.0004
 -17775008.24349 -13803391.76548  22036450.1394   22036452.8064   22036450.1114
       794.0084        618.7064         53.0004         46.0004
  -3015496.87048  -2302425.16047  24962749.5214   24962753.7104   24962750.1284
       931.8264        726.1004         42.0004         37.0004
  -8599437.28348  -6660051.64148  23504518.2694   23504521.5614   23504518.3694
      2987.5084       2327.9184         46.0004         42.0004
 -20294023.42649 -15751038.17349  21202128.1984   21202130.6334   21202128.0474
     -2063.0204      -1607.5484         55.0004         49.0004
 -10738122.27349  -8358797.29048  22575475.1514   22575476.5554   22575475.5324
      2841.0314       2213.7864         51.0004         44.0004
 -15257205.25449 -11635580.52548  22162534.8124   22162537.3474   22162534.5504
     -2517.9924      -1962.0764         52.0004         45.0004
 -26011707.95049 -20224537.00949  20389007.8704   20389011.2324   20389008.0694
     -1081.9534       -843.0854         56.0004         50.0004
 06  1 11 13 16  9.0000000  0  8G 3G18G27G19G16G22G21G15
 -23004279.64449 -17883534.33949  20673023.7144   20673026.6904   20673023.6104
      1501.5964       1170.0884         56.0004         50.0004
 -17775802.48149 -13804010.65248  22036299.0394   22036302.0564   22036299.7894
       794.2994        618.9454         53.0004         46.0004
  -3016428.47648  -2303151.08947  24962572.3244   24962576.4364   24962572.5644
       931.7484        726.0434         42.0004         37.0004
  -8602425.18748  -6662379.87548  23503949.6394   23503952.0064   23503949.1904
      2988.3184       2328.5554         46.0004         42.0004
 -20291960.67949 -15749430.83949  21202520.7234   21202523.2144   21202520.6454
     -2062.6504      -1607.2464         54.0004         49.0004
 -10740963.62049  -8361011.32848  22574934.4214   22574935.5864   22574933.8014
      2841.5894       2214.2274         51.0004         44.0004
 -15254687.69549 -11633618.78948  22163013.9454   22163015.7424   22163014.1894
     -2517.4774      -1961.6764         52.0004         45.0004
 -26010626.31549 -20223694.17649  20389213.7724   20389216.9634   20389213.7094
     -1081.4384       -842.6684         56.0004         50.0004
 06  1 11 13 16 10.0000000  0  8G 3G18G27G19G16G22G21G15
 -23005780.44249 -17884703.78949  20672738.1124   20672740.7944   20672737.7224
      1500.3734       1169.1154         56.0004         50.0004
 -17776595.98749 -13804628.97048  22036148.0464   22036151.2924   22036148.4384
       793.0144        617.9244         53.0004         46.0004
  -3017359.48947  -2303876.55547  24962395.3174   24962398.8764   24962395.1634
       930.4214        725.0094         41.0004         37.0004
  -8605412.86848  -6664707.93748  23503381.1634   23503383.8524   23503382.1174
      2987.5484       2327.9634         47.0004         42.0004
 -20289897.31149 -15747823.02349  21202913.4094   21202915.8464   21202913.2014
     -2063.8294      -1608.1814         55.0004         49.0004
 -10743804.49149  -8363224.99448  22574393.8444   22574394.5904   22574392.6414
      2840.5234       2213.3924         51.0004         44.0004
 -15252169.74549 -11631656.75148  22163493.1004   22163495.0654   22163492.7824
     -2518.1484      -1962.1904         52.0004         45.0004
 -26009544.05649 -20222850.85849  20389419.8204   20389422.8754   20389419.6394
     -1082.7264       -843.6804         56.0004         50.0004
 06  1 11 13 16 11.0000000  0  8G 3G18G27G19G16G22G21G15
 -23007280.82049 -17885872.91249  20672452.5074   20672455.4304   20672452.2204
      1499.6704       1168.5754         56.0004         50.0004
 -17777388.84349 -13805246.77748  22035997.1744   22035999.9124   22035998.0074
       792.1094        617.2184         53.0004         46.0004
  -3018289.93648  -2304601.57747  24962218.3864   24962222.1924   24962218.8894
       929.2734        724.1044         42.0004         38.0004
  -8608400.41848  -6667035.90048  23502813.0094   23502815.8594   23502813.1874
      2987.0974       2327.6084         47.0004         42.0004
 -20287833.39749 -15746214.77849  21203306.2034   21203308.8064   21203305.9374
     -2064.7044      -1608.8664         55.0004         49.0004
 -10746644.95849  -8365438.34648  22573853.3754   22573854.6534   22573853.0344
      2839.7164       2212.7564         51.0004         44.0004
 -15249651.44549 -11629694.44048  22163972.3464   22163974.5534   22163971.8714
     -2518.8714      -1962.7614         52.0004         45.0004
 -26008461.25249 -20222007.11349  20389625.9544   20389628.9944   20389625.9864
     -1083.6104       -844.3734         56.0004         50.0004
 06  1 11 13 16 12.0000000  0  8G 3G18G27G19G16G22G21G15
 -23008780.79349 -17887041.72249  20672166.9034   20672169.9694   20672166.7204
      1499.7714       1168.6584         56.0004         50.0004
 -17778181.08149 -13805864.10748  22035846.3844   22035849.1704   22035846.4074
       791.9284        617.0964         53.0004         46.0004
  -3019219.82348  -2305326.16647  24962041.9854   24962045.1944   24962042.0974
       928.9014        723.8254         42.0004         37.0004
  -8611387.86648  -6669363.77948  23502244.7184   23502246.8614   23502244.1244
      2987.6894       2328.0744         47.0004         42.0004
 -20285768.96249 -15744606.12949  21203699.0104   21203701.2564   21203698.5194
     -2064.4964      -1608.6984         55.0004         49.0004
 -10749485.06549  -8367651.41848  22573312.8944   22573313.8654   22573312.8454
      2839.8604       2212.8814         51.0004         45.0004
 -15247132.86049 -11627731.90348  22164451.6374   22164453.2514   22164451.2024
     -2518.6074      -1962.5554         52.0004         45.0004
 -26007377.93949 -20221162.97149  20389832.2384   20389834.8854   20389831.9954
     -1083.6074       -844.3714         56.0004         50.0004
 06  1 11 13 16 13.0000000  0  8G 3G18G27G19G16G22G21G15
 -23010280.35049 -17888210.20749  20671881.4174   20671884.5164   20671881.4174
      1499.3564       1168.3164         56.0004         50.0004
 -17778972.67049 -13806480.92748  22035695.7484   22035698.4994   22035696.2674
       791.4604        616.7074         52.0004         46.0004
  -3020149.20248  -2306050.35747  24961865.2684   24961868.2544   24961865.2554
       928.8474        723.7674         42.0004         37.0004
  -8614375.16748  -6671691.54348  23501676.4734   23501678.5494   23501676.6854
      2987.2294       2327.7064         47.0004         42.0004
 -20283703.97549 -15742997.04749  21204091.9584   21204094.1094   21204091.6134
     -2065.1154      -1609.1894         55.0004         49.0004
 -10752324.76649  -8369864.17148  22572772.3004   22572773.6684   22572771.9694
      2839.5394       2212.6174         51.0004         44.0004
 -15244613.94349 -11625769.10948  22164930.9504   22164932.8834   22164930.5444
     -2518.9384      -1962.8114         52.0004         45.0004
 -26006294.08349 -20220318.40849  20390038.6674   20390041.4774   20390038.0284
     -1084.0604       -844.7264         56.0004         50.0004
 06  1 11 13 16 14.0000000  0  8G 3G18G27G19G16G22G21G15
 -23011779.50549 -17889378.37749  20671596.0564   20671599.3604   20671595.9334
      1499.2854       1168.2744         56.0004         50.0004
 -17779763.64049 -13807097.26248  22035545.2664   22035547.7884   22035545.8264
       791.0204        616.3764         53.0004         46.0004
  -3021078.05448  -2306774.13947  24961688.5504   24961691.3334   24961688.4684
       929.4654        724.2644         42.0004         37.0004
  -8617362.37448  -6674019.23848  23501108.1974   23501109.6534   23501108.4754
      2987.5884       2327.9994         47.0004         42.0004
 -20281638.46449 -15741387.55749  21204485.0344   21204487.1994   21204484.8914
     -2065.4654      -1609.4524         55.0004         49.0004
 -10755164.09149  -8372076.63148  22572231.7254   22572232.8714   22572231.9484
      2839.3544       2212.4904         51.0004         44.0004
 -15242094.72749 -11623806.08648  22165410.3124   22165411.4274   22165410.1524
     -2519.0514      -1962.8904         52.0004         45.0004
 -26005209.71449 -20219473.44449  20390245.0984   20390247.8014   20390244.5574
     -1084.3774       -844.9664         56.0004         50.0004
 06  1 11 13 16 15.0000000  0  8G 3G18G27G19G16G22G21G15
 -23013278.26949 -17890546.24649  20671310.7354   20671314.1494   20671311.0364
      1498.8724       1167.9564         56.0004         50.0004
 -17780553.98149 -13807713.11248  22035394.9184   22035397.5794   22035395.3214
       790.3534        615.8614         53.0004         46.0004
  -3022006.32547  -2307497.46847  24961511.7934   24961514.2414   24961510.9524
       928.2754        723.3304         41.0004         37.0004
  -8620349.46848  -6676346.84648  23500539.7974   23500541.3054   23500539.0644
      2987.4774       2327.9144         47.0004         42.0004
 -20279572.43449 -15739777.66749  21204878.2614   21204880.3444   21204878.0644
     -2065.9514      -1609.8224         55.0004         49.0004
 -10758003.05149  -8374288.80248  22571691.2884   22571693.1234   22571692.3624
      2839.0064       2212.2284         51.0004         44.0004
 -15239575.20049 -11621842.82048  22165889.7764   22165891.5144   22165890.2074
     -2519.4414      -1963.2074         52.0004         45.0004
 -26004124.83649 -20218628.08549  20390451.6104   20390454.3404   20390450.9684
     -1084.7934       -845.2914         56.0004         50.0004
 06  1 11 13 16 16.0000000  0  8G 3G18G27G19G16G22G21G15
 -23014776.61149 -17891713.78649  20671025.5794   20671029.0834   20671025.7464
      1498.6114       1167.7434         56.0004         50.0004
 -17781343.68449 -13808328.46548  22035244.7684   22035247.5934   22035244.8294
       789.9464        615.5454         53.0004         46.0004
  -3022934.03548  -2308220.36047  24961335.1834   24961337.9954   24961334.6714
       927.8144        722.9794         42.0004         37.0004
  -8623336.42248  -6678674.34748  23499971.4924   23499972.7694   23499971.1324
      2987.3114       2327.7754         47.0004         42.0004
 -20277505.86449 -15738167.35249  21205271.5614   21205273.9034   21205271.2754
     -2066.2914      -1610.1024         55.0004         49.0004
 -10760841.62349  -8376500.67848  22571150.8344   22571152.6614   22571151.9084
      2838.8654       2212.0944         50.0004         44.0004
 -15237055.36649 -11619879.31348  22166369.2474   22166370.5014   22166369.0344
     -2519.6244      -1963.3604         52.0004         45.0004
 -26003039.42249 -20217782.30549  20390658.1254   20390660.7554   20390657.4394
     -1085.1724       -845.5944         56.0004         50.0004
 06  1 11 13 16 17.0000000  0  8G 3G18G27G19G16G22G21G15
 -23016274.54649 -17892881.00749  20670740.4784   20670744.0574   20670740.6574
      1497.1954       1166.6404         56.0004         50.0004
 -17782132.76449 -13808943.33248  22035094.7614   22035097.0114   22035094.5624
       788.2824        614.2414         53.0004         46.0004
  -3023861.24747  -2308942.86547  24961158.2734   24961160.8074   24961157.1744
       926.3004        721.7974         41.0004         37.0004
  -8626323.27749  -6681001.76848  23499403.2794   23499404.9464   23499403.0574
      2986.3734       2327.0334         48.0004         42.0004
 -20275438.76249 -15736556.62349  21205664.9084   21205667.0474   21205664.3064
     -2067.9534      -1611.3904         55.0004         49.0004
 -10763679.81049  -8378712.25048  22570610.5704   22570612.4594   22570610.3104
      2837.5234       2211.0674         51.0004         44.0004
 -15234535.22049 -11617915.56548  22166848.7674   22166851.0964   22166849.0974
     -2520.6874      -1964.1614         52.0004         45.0004
 -26001953.48749 -20216936.12249  20390864.7204   20390867.3794   20390863.9694
     -1086.7224       -846.8014         56.0004         50.0004
 06  1 11 13 16 18.0000000  0  8G 3G18G27G19G16G22G21G15
 -23017772.08549 -17894047.91949  20670455.3964   20670459.0934   20670455.7414
      1498.6764       1167.8124         56.0004         50.0004
 -17782921.21849 -13809557.71348  22034944.8934   22034947.4834   22034944.9564
       789.4664        615.1914         53.0004         46.0004
  -3024787.91848  -2309664.94847  24960981.9254   24960985.5714   24960981.2134
       926.0814        721.6294         42.0004         37.0004
  -8629310.02048  -6683329.09948  23498835.0654   23498835.5814   23498834.9304
      2988.0354       2328.3544         47.0004         42.0004
 -20273371.14249 -15734945.49049  21206058.2354   21206060.7694   21206058.1764
     -2066.5614      -1610.2984         55.0004         49.0004
 -10766517.62149  -8380923.53348  22570070.4214   22570072.5094   22570071.0984
      2838.8564       2212.1104         51.0004         44.0004
 -15232014.76549 -11615951.57348  22167328.4064   22167330.0264   22167328.5204
     -2519.3674      -1963.1234         52.0004         45.0004
 -26000867.04149 -20216089.53949  20391071.4504   20391074.0314   20391070.8254
     -1085.4644       -845.8064         56.0004         50.0004
 06  1 11 13 16 19.0000000  0  9G 3G29G18G27G19G16G22G21G15
 -23019269.26949 -17895214.55749  20670170.4404   20670174.1924   20670170.7074
      1496.7724       1166.3114         56.0004         50.0004
    -12973.02957     -5907.31156  25165775.5324   25165778.8314   25165775.9944
       258.6804        201.5754         41.0004         35.0004
 -17783709.09949 -13810171.64748  22034795.1574   22034797.2294   22034794.7974
       787.2724        613.4634         53.0004         46.0004
  -3025714.12247  -2310386.66547  24960805.6884   24960810.2084   24960805.6564
       925.2134        720.9484         41.0004         37.0004
  -8632296.69949  -6685656.38048  23498266.9944   23498267.2254   23498267.0714
      2986.4394       2327.0974         48.0004         42.0004
 -20271303.03949 -15733333.98449  21206451.7314   21206454.0114   21206451.7294
     -2068.6084      -1611.9104         54.0004         49.0004
 -10769355.10949  -8383134.56348  22569530.4874   22569532.8784   22569531.3634
      2837.1734       2210.7724         51.0004         44.0004
 -15229494.06849 -11613987.39748  22167808.1824   22167810.2124   22167808.1414
     -2521.0004      -1964.3904         52.0004         45.0004
 -25999780.12249 -20215242.59149  20391278.2374   20391281.0284   20391277.5964
     -1087.4694       -847.3854         56.0004         50.0004
 06  1 11 13 16 20.0000000  0  9G 3G29G18G27G19G16G22G21G15
 -23020765.86949 -17896380.73949  20669885.5484   20669889.4964   20669885.7844
      1495.9454       1165.6734         56.0004         50.0004
    -13231.42247     -6108.65746  25165726.2454   25165730.0844   25165728.1844
       257.4094        200.5954         41.0004         35.0004
 -17784496.18049 -13810784.95648  22034645.4444   22034647.4594   22034645.4844
       786.4234        612.8044         53.0004         46.0004
  -3026639.62047  -2311107.83247  24960629.0084   24960633.8234   24960629.0904
       925.8504        721.4494         41.0004         37.0004
  -8635283.08149  -6687983.42748  23497698.9014   23497698.7244   23497697.7234
      2985.9334       2326.6974         48.0004         42.0004
 -20269234.23549 -15731721.92949  21206845.3554   21206848.0074   21206845.3634
     -2069.5124      -1612.6084         55.0004         49.0004
 -10772192.03449  -8385345.15348  22568990.6344   22568992.3154   22568991.0954
      2836.2554       2210.0674         51.0004         44.0004
 -15226972.88249 -11612022.83648  22168288.0264   22168290.1584   22168288.4504
     -2521.7134      -1964.9844         52.0004         45.0004
 -25998692.51049 -20214395.10149  20391485.1604   20391487.8114   20391484.5914
     -1088.2564       -847.9914         56.0004         50.0004
 06  1 11 13 16 21.0000000  0  9G 3G29G18G27G19G16G22G21G15
 -23022262.23649 -17897546.73849  20669600.7624   20669604.4684   20669601.0934
      1496.4224       1166.0544         56.0004         50.0004
    -13489.36747     -6309.65246  25165677.0634   25165679.7554   25165678.5994
       257.7984        200.8754         41.0004         35.0004
 -17785282.78549 -13811397.89548  22034495.7694   22034497.6884   22034495.7514
       786.4544        612.8254         53.0004         46.0004
  -3027564.70847  -2311828.68047  24960452.8174   24960458.4664   24960453.0704
       924.8724        720.6824         41.0004         38.0004
  -8638269.52349  -6690310.52348  23497130.8174   23497130.1524   23497129.9384
      2986.6914       2327.2884         48.0004         42.0004
 -20267165.06549 -15730109.58849  21207239.0224   21207241.1934   21207239.0734
     -2069.0914      -1612.2734         55.0004         49.0004
 -10775028.74549  -8387555.57448  22568450.9084   22568452.9924   22568451.3634
      2836.8734       2210.5724         51.0004         44.0004
 -15224451.54849 -11610058.16048  22168767.9184   22168769.2564   22168767.1884
     -2521.1964      -1964.5534         52.0004         45.0004
 -25997604.53949 -20213547.33049  20391692.1354   20391694.9214   20391691.5274
     -1087.8914       -847.7004         56.0004         50.0004
 06  1 11 13 16 22.0000000  0  9G 3G29G18G27G19G16G22G21G15
 -23023758.12149 -17898712.36349  20669316.0844   20669320.1684   20669316.3844
      1495.1994       1165.0814         56.0004         50.0004
    -13746.68048     -6510.15346  25165628.2234   25165631.5264   25165628.8834
       256.5704        199.9294         42.0004         35.0004
 -17786068.69649 -13812010.29048  22034346.2534   22034348.3424   22034345.1344
       785.0354        611.6964         53.0004         46.0004
  -3028489.21647  -2312549.07747  24960276.9014   24960282.4614   24960277.0384
       923.4214        719.5474         41.0004         37.0004
  -8641255.76348  -6692637.46748  23496562.5804   23496562.2614   23496561.4874
      2985.5924       2326.4274         47.0004         42.0004
 -20265095.29749 -15728496.78249  21207632.8734   21207635.4454   21207632.6814
     -2070.4844      -1613.3744         54.0004         49.0004
 -10777864.99849  -8389765.64248  22567911.2594   22567913.4314   22567912.5434
      2835.4134       2209.4014         51.0004         44.0004
 -15221929.83549 -11608093.18748  22169247.8274   22169249.8124   22169247.3394
     -2522.4614      -1965.5654         52.0004         45.0004
 -25996515.96949 -20212699.09449  20391899.2694   20391902.1034   20391898.8474
     -1089.3774       -848.8754         56.0004         50.0004
 06  1 11 13 16 23.0000000  0  9G 3G29G18G27G19G16G22G21G15
 -23025253.57549 -17899877.65149  20669031.5644   20669035.4574   20669032.0324
      1495.3254       1165.1954         56.0004         50.0004
    -14003.35847     -6710.16146  25165579.4474   25165581.6174   25165580.8254
       256.4354        199.8134         41.0004         35.0004
 -17786853.95549 -13812622.18348  22034196.7814   22034198.7524   22034196.7184
       785.1184        611.7924         53.0004         46.0004
  -3029413.16047  -2313269.03547  24960101.1514   24960106.5904   24960100.9204
       923.9544        719.9624         41.0004         37.0004
  -8644241.87649  -6694964.30848  23495994.3944   23495993.9744   23495993.0204
      2986.2904       2326.9894         48.0004         42.0004
 -20263024.97149 -15726883.54249  21208026.8274   21208029.3484   21208026.8124
     -2070.5474      -1613.4004         55.0004         49.0004
 -10780700.85649  -8391975.40148  22567371.7034   22567373.2274   22567372.0784
      2835.6174       2209.5634         51.0004         44.0004
 -15219407.79249 -11606127.96348  22169727.8614   22169729.4004   22169727.4894
     -2522.1794      -1965.3374         52.0004         45.0004
 -25995426.86849 -20211850.44449  20392106.4834   20392109.4114   20392106.0134
     -1089.1514       -848.6764         56.0004         50.0004
 06  1 11 13 16 24.0000000  0  9G 3G29G18G27G19G16G22G21G15
 -23026748.68649 -17901042.67349  20668747.0824   20668750.8764   20668747.4374
      1494.9804       1164.9194         56.0004         50.0004
    -14259.50948     -6909.75346  25165530.8724   25165533.5634   25165533.4634
       255.7994        199.3154         42.0004         35.0004
 -17787638.63249 -13813233.61348  22034047.4654   22034049.6334   22034047.1634
       784.5944        611.3714         53.0004         46.0004
  -3030336.61147  -2313988.60647  24959925.3374   24959929.7694   24959924.9664
       922.5554        718.8694         41.0004         37.0004
  -8647227.92149  -6697291.09748  23495426.1864   23495425.4744   23495425.6984
      2986.2034       2326.9144         48.0004         42.0004
 -20260954.18649 -15725269.94349  21208420.8654   21208423.1394   21208421.0514
     -2070.8634      -1613.6554         54.0004         49.0004
 -10783536.39849  -8394184.91748  22566832.2194   22566834.5704   22566833.1354
      2835.6364       2209.5964         51.0004         44.0004
 -15216885.50449 -11604162.54148  22170207.8654   22170208.5354   22170207.9854
     -2522.2294      -1965.3894         52.0004         45.0004
 -25994337.30449 -20211001.43249  20392313.7524   20392316.9354   20392313.1004
     -1089.6314       -849.0654         56.0004         50.0004
 06  1 11 13 16 25.0000000  0  9G 3G29G18G27G19G16G22G21G15
 -23028243.38049 -17902207.36949  20668462.6904   20668466.5914   20668463.0474
      1493.8634       1164.0394         56.0004         50.0004
    -14515.08048     -7108.89646  25165482.2104   25165485.7864   25165483.4934
       254.7414        198.4994         42.0004         35.0004
 -17788422.67949 -13813844.55848  22033898.2884   22033900.2814   22033898.0354
       783.2894        610.3454         53.0004         46.0004
  -3031259.51947  -2314707.75547  24959749.3424   24959753.3254   24959749.5854
       921.3424        717.9244         40.0004         37.0004
  -8650213.85948  -6699617.80448  23494858.0354   23494857.4474   23494857.2434
      2985.3464       2326.2424         47.0004         42.0004
 -20258882.86349 -15723655.92749  21208815.0354   21208817.6704   21208814.9604
     -2072.2034      -1614.7134         55.0004         49.0004
 -10786371.54049  -8396394.12548  22566292.8644   22566294.0704   22566293.1114
      2834.2574       2208.5014         51.0004         44.0004
 -15214362.89949 -11602196.87248  22170687.9624   22170689.2814   22170687.5744
     -2523.3134      -1966.2444         52.0004         45.0004
 -25993247.20649 -20210152.00649  20392521.1474   20392524.1364   20392520.6274
     -1090.8404       -850.0144         56.0004         50.0004
 06  1 11 13 16 26.0000000  0  9G 3G29G18G27G19G16G22G21G15
 -23029737.56849 -17903371.67149  20668178.3554   20668182.0054   20668178.7944
      1493.5374       1163.7854         56.0004         50.0004
    -14769.94747     -7307.49146  25165433.9284   25165437.0084   25165436.1514
       254.4974        198.3024         41.0004         35.0004
 -17789205.98349 -13814454.92648  22033749.2574   22033750.3714   22033748.7494
       782.5614        609.7744         53.0004         46.0004
  -3032181.81347  -2315426.42747  24959573.3904   24959578.6394   24959573.6214
       921.8374        718.3054         41.0004         37.0004
  -8653199.55949  -6701944.32148  23494289.7394   23494289.7624   23494289.5454
      2985.1924       2326.1214         48.0004         42.0004
 -20256810.90749 -15722041.41349  21209209.2684   21209211.9714   21209209.2634
     -2072.6364      -1615.0574         54.0004         49.0004
 -10789206.19749  -8398602.94248  22565753.5764   22565755.0194   22565753.9164
      2833.9564       2208.2634         51.0004         44.0004
 -15211839.87749 -11600230.88048  22171168.0764   22171168.6154   22171168.0984
     -2523.6404      -1966.4814         52.0004         45.0004
 -25992156.48349 -20209302.09149  20392728.6604   20392731.7394   20392728.1734
     -1091.3764       -850.4344         56.0004         50.0004
 06  1 11 13 16 27.0000000  0  9G 3G29G18G27G19G16G22G21G15
 -23031231.33949 -17904535.64949  20667894.0624   20667897.9844   20667894.4754
      1493.6784       1163.9094         56.0004         50.0004
    -15024.20647     -7505.61446  25165385.3724   25165388.8554   25165386.9504
       254.1454        198.0364         41.0004         35.0004
 -17789988.65249 -13815064.79648  22033600.2394   22033602.1944   22033600.2724
       782.5014        609.7454         53.0004         46.0004
  -3033103.53147  -2316144.65047  24959397.4454   24959402.9684   24959398.0014
       921.4934        718.0514         41.0004         37.0004
  -8656185.14649  -6704270.75148  23493721.3914   23493721.9124   23493720.4994
      2985.7244       2326.5454         48.0004         42.0004
 -20254738.41549 -15720426.48549  21209603.6164   21209606.3434   21209603.8374
     -2072.6804      -1615.0654         55.0004         49.0004
 -10792040.46849  -8400811.45848  22565214.4714   22565216.2134   22565214.8584
      2834.2534       2208.5114         51.0004         44.0004
 -15209316.54349 -11598264.65048  22171648.1674   22171649.9464   22171647.8374
     -2523.4704      -1966.3414         52.0004         45.0004
 -25991065.23549 -20208451.76849  20392936.2424   20392939.3234   20392935.6334
     -1091.3684       -850.4084         56.0004         50.0004
 06  1 11 13 16 28.0000000  0  9G 3G29G18G27G19G16G22G21G15
 -23032724.89449 -17905699.45949  20667609.8804   20667613.6164   20667610.1064
      1493.2254       1163.5544         56.0004         50.0004
    -15278.08447     -7703.43846  25165336.9354   25165341.0364   25165339.5774
       253.3104        197.3834         41.0004         35.0004
 -17790770.87349 -13815674.31648  22033451.3324   22033453.5864   22033451.1064
       781.7874        609.1994         53.0004         46.0004
  -3034024.87447  -2316862.58047  24959222.0434   24959227.2204   24959223.5554
       919.9534        716.8534         41.0004         37.0004
  -8659170.78649  -6706597.22948  23493153.1884   23493153.2624   23493152.0274
      2985.3844       2326.2814         48.0004         42.0004
 -20252665.57649 -15718811.28649  21209997.9794   21210000.7124   21209998.2994
     -2073.3724      -1615.6074         55.0004         49.0004
 -10794874.53349  -8403019.82348  22564675.3534   22564675.8764   22564675.3854
      2833.6014       2208.0064         51.0004         44.0004
 -15206793.08949 -11596298.32048  22172128.3144   22172129.3454   22172127.8484
     -2523.8264      -1966.6324         52.0004         45.0004
 -25989973.65549 -20207601.18749  20393143.9224   20393147.2864   20393143.4494
     -1092.0224       -850.9224         56.0004         50.0004
 06  1 11 13 16 29.0000000  0  9G 3G29G18G27G19G16G22G21G15
 -23034217.82349 -17906862.77849  20667325.8544   20667329.5804   20667326.2914
      1492.4394       1162.9354         56.0004         50.0004
    -15531.12948     -7900.61146  25165288.4634   25165292.2734   25165290.4444
       252.1924        196.5044         42.0004         35.0004
 -17791552.25349 -13816283.18348  22033302.5814   22033303.8994   22033302.5964
       780.7334        608.3564         53.0004         46.0004
  -3034945.53647  -2317579.97847  24959046.9884   24959052.3664   24959048.7994
       920.4064        717.2104         41.0004         37.0004
  -8662156.11349  -6708923.45648  23492585.1844   23492584.6614   23492583.9194
      2985.0194       2325.9914         48.0004         42.0004
 -20250591.99449 -15717195.51149  21210392.5244   21210395.5314   21210392.9164
     -2074.1154      -1616.1984         55.0004         49.0004
 -10797708.01249  -8405227.72548  22564136.3214   22564137.2734   22564136.4954
      2833.0104       2207.5354         51.0004         44.0004
 -15204269.12649 -11594331.59448  22172608.6034   22172609.8944   22172608.5634
     -2524.4094      -1967.0694         52.0004         45.0004
 -25988881.34549 -20206750.03849  20393351.6734   20393354.9444   20393351.6344
     -1092.8674       -851.5844         56.0004         50.0004
 06  1 11 13 16 30.0000000  0  9G 3G29G18G27G19G16G22G21G15
 -23035710.46749 -17908025.87549  20667041.8494   20667045.6674   20667042.0534
      1492.4564       1162.9464         56.0004         50.0004
    -15783.73647     -8097.44047  25165240.2074   25165244.6894   25165242.2764
       252.2204        196.5254         41.0004         36.0004
 -17792333.12349 -13816891.65048  22033153.9884   22033156.4274   22033153.4454
       780.6694        608.3194         53.0004         46.0004
  -3035865.74548  -2318297.02547  24958872.0674   24958877.1604   24958874.4084
       919.6944        716.6344         42.0004         37.0004
  -8665141.43949  -6711249.68348  23492016.9644   23492017.0434   23492015.7804
      2985.3334       2326.2254         48.0004         42.0004
 -20248518.01449 -15715579.42249  21210787.1684   21210790.1904   21210787.3364
     -2074.0724      -1616.1614         55.0004         49.0004
 -10800541.23449  -8407435.42548  22563597.2834   22563598.2354   22563597.0464
      2833.2144       2207.7074         51.0004         44.0004
 -15201744.96049 -11592364.71348  22173088.8674   22173090.5614   22173087.9604
     -2524.1294      -1966.8474         52.0004         45.0004
 -25987788.62949 -20205898.57049  20393559.5254   20393562.7874   20393559.2544
     -1092.9404       -851.6494         56.0004         50.0004
 06  1 11 13 16 31.0000000  0  9G 3G29G18G27G19G16G22G21G15
 -23037202.68049 -17909188.64049  20666757.9494   20666761.6494   20666758.3754
      1491.8634       1162.4994         56.0004         50.0004
    -16035.73147     -8293.80047  25165192.2134   25165197.2794   25165195.4744
       251.5784        196.0334         41.0004         36.0004
 -17793113.34549 -13817499.61848  22033005.4664   22033007.7394   22033005.2594
       779.7424        607.6014         53.0004         46.0004
  -3036785.35848  -2319013.60747  24958697.3984   24958702.7804   24958699.7224
       918.0834        715.4004         42.0004         37.0004
  -8668126.62448  -6713575.80348  23491448.8904   23491449.2304   23491448.7784
      2985.0594       2326.0334         47.0004         42.0004
 -20246443.46849 -15713962.89349  21211181.9934   21211185.0634   21211182.2084
     -2075.0164      -1616.8874         55.0004         49.0004
 -10803374.04149  -8409642.80848  22563058.2894   22563058.7424   22563057.4754
      2832.3684       2207.0414         51.0004         44.0004
 -15199220.46849 -11590397.58148  22173569.2294   22173570.2314   22173569.1254
     -2524.8584      -1967.4194         52.0004         45.0004
 -25986695.37349 -20205046.68349  20393767.5004   20393771.0154   20393767.5514
     -1093.6564       -852.1954         56.0004         50.0004
 06  1 11 13 16 32.0000000  0  9G 3G29G18G27G19G16G22G21G15
 -23038694.46849 -17910351.07349  20666474.0844   20666477.8274   20666474.4604
      1492.4924       1162.9874         56.0004         50.0004
    -16287.10747     -8489.67146  25165143.9474   25165148.5784   25165145.2134
       252.0164        196.3744         41.0004         35.0004
 -17793892.91449 -13818107.07648  22032857.1514   22032858.8364   22032857.1854
       780.2804        608.0104         53.0004         46.0004
  -3037704.48647  -2319729.81147  24958522.3044   24958528.5994   24958524.8374
       919.6124        716.5784         41.0004         37.0004
  -8671111.66949  -6715901.81648  23490880.8874   23490880.8654   23490880.0424
      2985.8524       2326.6384         48.0004         42.0004
 -20244368.37049 -15712345.93249  21211576.9284   21211579.5614   21211576.8774
     -2074.5304      -1616.5144         55.0004         49.0004
 -10806206.45249  -8411849.88348  22562519.3454   22562520.2394   22562518.1184
      2832.9474       2207.5074         51.0004         44.0004
 -15196695.64949 -11588430.18648  22174049.6324   22174051.3314   22174049.6354
     -2524.1494      -1966.8704         52.0004         45.0004
 -25985601.57549 -20204194.37349  20393975.6774   20393979.3464   20393975.6114
     -1093.1934       -851.8314         56.0004         50.0004
 06  1 11 13 16 33.0000000  0  9G 3G29G18G27G19G16G22G21G15
 -23040185.81049 -17911513.15649  20666190.3764   20666193.9544   20666190.6874
      1490.7794       1161.6434         56.0004         50.0004
    -16537.84147     -8685.04446  25165096.1354   25165100.0574   25165097.6164
       249.7364        194.5844         41.0004         35.0004
 -17794671.81149 -13818714.00548  22032708.9794   22032711.0694   22032708.4374
       778.2274        606.4084         53.0004         46.0004
  -3038622.98847  -2320445.53047  24958347.5594   24958354.0714   24958350.4004
       917.4874        714.9214         39.0004         37.0004
  -8674096.55948  -6718227.70548  23490312.8594   23490312.7864   23490312.0794
      2984.6144       2325.6714         47.0004         42.0004
 -20242292.71549 -15710728.53949  21211971.9734   21211974.8894   21211972.0024
     -2076.2374      -1617.8604         55.0004         49.0004
 -10809038.44449  -8414056.62848  22561980.4704   22561981.1274   22561979.3924
      2831.4784       2206.3414         51.0004         44.0004
 -15194170.49349 -11586462.53448  22174530.1494   22174532.2284   22174529.7794
     -2525.4674      -1967.8994         52.0004         45.0004
 -25984507.21349 -20203341.62549  20394183.8924   20394187.0964   20394183.8994
     -1094.9234       -853.1944         56.0004         50.0004
 06  1 11 13 16 34.0000000  0  9G 3G29G18G27G19G16G22G21G15
 -23041676.85049 -17912675.00549  20665906.7714   20665910.1674   20665906.9394
      1491.0254       1161.8394         56.0004         50.0004
    -16788.13047     -8880.07246  25165048.6484   25165053.0024   25165050.7264
       249.9494        194.7584         41.0004         35.0004
 -17795450.17549 -13819320.52348  22032560.8864   22032562.9914   22032560.5244
       778.1664        606.3754         53.0004         46.0004
  -3039541.09347  -2321160.93647  24958172.4854   24958178.6444   24958174.7214
       918.7354        715.9034         40.0004         37.0004
  -8677081.42248  -6720553.57548  23489744.8244   23489744.9134   23489743.6924
      2985.0744       2326.0374         47.0004         42.0004
 -20240216.62549 -15709110.80749  21212367.1084   21212369.6954   21212367.1594
     -2076.1844      -1617.7994         55.0004         49.0004
 -10811870.14749  -8416263.14948  22561441.6644   22561442.3844   22561440.5984
      2831.6394       2206.4574         51.0004         44.0004
 -15191645.12149 -11584494.71148  22175010.6484   22175012.5144   22175010.6744
     -2525.2844      -1967.7504         52.0004         45.0004
 -25983412.43249 -20202488.55049  20394392.2324   20394395.8824   20394392.3314
     -1094.9714       -853.2184         56.0004         50.0004
 06  1 11 13 16 35.0000000  0  9G 3G29G18G27G19G16G22G21G15
 -23043167.32949 -17913836.41849  20665623.2394   20665626.4584   20665623.3454
      1490.4774       1161.4154         56.0004         50.0004
    -17037.66347     -9074.50946  25165001.1174   25165004.4664   25165002.3784
       249.4134        194.3374         41.0004         35.0004
 -17796227.76649 -13819926.43548  22032412.9324   22032414.9124   22032412.4364
       777.5524        605.8794         53.0004         46.0004
  -3040458.47347  -2321875.77747  24957997.8474   24958004.4804   24958000.1414
       917.0384        714.5684         41.0004         37.0004
  -8680066.02448  -6722879.24048  23489176.5044   23489177.4554   23489174.7954
      2984.7544       2325.7794         47.0004         42.0004
 -20238139.85949 -15707492.54849  21212762.3924   21212765.2014   21212762.3924
     -2076.6804      -1618.1874         55.0004         49.0004
 -10814701.32549  -8418469.25748  22560902.8954   22560904.0084   22560901.8494
      2831.3584       2206.2554         51.0004         44.0004
 -15189119.28149 -11582526.52548  22175491.2024   22175493.0224   22175491.7084
     -2525.7254      -1968.1074         52.0004         45.0004
 -25982316.98749 -20201634.95449  20394600.7284   20394604.1344   20394600.7154
     -1095.4364       -853.5854         56.0004         50.0004
 06  1 11 13 16 36.0000000  0  9G 3G29G18G27G19G16G22G21G15
 -23044657.50149 -17914997.59049  20665339.7264   20665342.8934   20665339.7774
      1489.5374       1160.6804         56.0004         50.0004
    -17286.70247     -9268.56546  25164953.6474   25164957.4134   25164955.2944
       248.4994        193.6354         41.0004         35.0004
 -17797004.82749 -13820531.93648  22032265.0564   22032266.9704   22032264.7654
       776.3714        604.9564         53.0004         46.0004
  -3041375.42847  -2322590.28547  24957823.0834   24957830.0784   24957825.8444
       916.7344        714.3404         40.0004         37.0004
  -8683050.61148  -6725204.89048  23488608.1524   23488608.7924   23488606.7914
      2983.9534       2325.1544         46.0004         42.0004
 -20236062.67049 -15705873.95949  21213157.6624   21213160.4814   21213157.5874
     -2077.8064      -1619.0694         55.0004         49.0004
 -10817532.21049  -8420675.14148  22560364.1094   22560364.3324   22560363.6354
      2830.3524       2205.4774         51.0004         44.0004
 -15186593.24949 -11580558.18748  22175971.9744   22175973.8894   22175972.1184
     -2526.5474      -1968.7184         52.0004         45.0004
 -25981221.11249 -20200781.02449  20394809.3034   20394812.7414   20394809.1834
     -1096.5164       -854.4264         56.0004         50.0004
 06  1 11 13 16 37.0000000  0  9G 3G29G18G27G19G16G22G21G15
 -23046147.31349 -17916158.48549  20665056.2354   20665059.4864   20665056.2294
      1489.4464       1160.6104         56.0004         50.0004
    -17535.19447     -9462.19046  25164906.7344   25164909.1254   25164906.8374
       247.8934        193.1664         41.0004         35.0004
 -17797781.30549 -13821136.98748  22032117.2704   22032119.0534   22032116.7904
       776.1744        604.8224         53.0004         46.0004
  -3042291.88047  -2323304.40047  24957648.9314   24957655.6414   24957651.6164
       916.0654        713.8164         40.0004         37.0004
  -8686035.13148  -6727530.48948  23488039.8784   23488041.8794   23488040.3924
      2984.4964       2325.5984         46.0004         42.0004
 -20233984.99849 -15704254.99849  21213552.9304   21213555.6124   21213552.9094
     -2078.0414      -1619.2484         55.0004         49.0004
 -10820362.76549  -8422880.77048  22559825.4744   22559827.0004   22559824.5894
      2830.1364       2205.3084         51.0004         44.0004
 -15184066.95049 -11578589.64448  22176452.7674   22176454.5744   22176452.8474
     -2526.5854      -1968.7714         52.0004         45.0004
 -25980124.76249 -20199926.72749  20395017.9474   20395021.3434   20395017.7964
     -1096.8024       -854.6494         56.0004         50.0004
 06  1 11 13 16 38.0000000  0  9G 3G29G18G27G19G16G22G21G15
 -23047636.62749 -17917318.98749  20664772.8164   20664775.9734   20664772.7324
      1488.8654       1160.1624         56.0004         50.0004
    -17783.00047     -9655.28846  25164860.1734   25164863.2184   25164860.2954
       247.3534        192.7374         41.0004         35.0004
 -17798557.05749 -13821741.46948  22031969.6524   22031971.4494   22031969.4674
       775.2084        604.0624         53.0004         46.0004
  -3043207.72347  -2324018.04847  24957474.8144   24957481.3484   24957477.7154
       915.6774        713.5264         41.0004         37.0004
  -8689019.43748  -6729855.91348  23487471.5624   23487474.0514   23487471.2554
      2983.9504       2325.1604         46.0004         42.0004
 -20231906.69649 -15702635.54149  21213948.3824   21213951.2394   21213948.4074
     -2078.7464      -1619.8054         55.0004         49.0004
 -10823192.83549  -8425086.01848  22559286.8804   22559288.0194   22559286.3114
      2829.5774       2204.8724         51.0004         44.0004
 -15181540.24449 -11576620.78348  22176933.6454   22176935.2194   22176933.3624
     -2527.0814      -1969.1464         52.0004         45.0004
 -25979027.80049 -20199071.95149  20395226.6434   20395230.2254   20395226.7284
     -1097.5024       -855.1884         56.0004         50.0004
 06  1 11 13 16 39.0000000  0  9G 3G29G18G27G19G16G22G21G15
 -23049125.49449 -17918479.14249  20664489.4634   20664492.8644   20664489.4914
      1488.6504       1159.9884         56.0004         50.0004
    -18030.19047     -9847.90046  25164813.5694   25164815.7194   25164812.3174
       246.7494        192.2724         41.0004         35.0004
 -17799332.14149 -13822345.43048  22031822.1994   22031824.1864   22031822.0804
       774.9074        603.8394         53.0004         46.0004
  -3044122.96947  -2324731.22847  24957300.6334   24957307.4914   24957302.9554
       915.1034        713.0654         40.0004         37.0004
  -8692003.59348  -6732181.22848  23486903.4154   23486905.7394   23486903.4004
      2984.3064       2325.4424         45.0004         42.0004
 -20229827.84849 -15701015.65949  21214343.9954   21214346.6504   21214343.9954
     -2079.0224      -1620.0114         54.0004         49.0004
 -10826022.49949  -8427290.95248  22558748.2574   22558749.0064   22558748.1364
      2829.6024       2204.8914         51.0004         44.0004
 -15179013.20949 -11574651.66348  22177414.5054   22177416.3094   22177414.4744
     -2526.9734      -1969.0484         51.0004         45.0004
 -25977930.27849 -20198216.73949  20395435.5304   20395438.9164   20395435.5634
     -1097.6574       -855.3124         56.0004         50.0004
 06  1 11 13 16 40.0000000  0  9G 3G29G18G27G19G16G22G21G15
 -23050614.02449 -17919639.03449  20664206.1804   20664209.5454   20664206.1244
      1488.8244       1160.1224         56.0004         50.0004
    -18276.87047    -10040.11646  25164766.6374   25164769.7344   25164766.3194
       246.9244        192.4034         41.0004         35.0004
 -17800106.66549 -13822948.95648  22031674.7704   22031676.5094   22031674.7644
       774.7024        603.6734         53.0004         46.0004
  -3045037.75047  -2325444.04447  24957126.8964   24957133.5244   24957128.2444
       914.9494        712.9394         41.0004         37.0004
  -8694987.68848  -6734506.49548  23486335.2554   23486337.6454   23486335.0254
      2984.0944       2325.2634         46.0004         42.0004
 -20227748.51949 -15699395.40249  21214739.7244   21214742.1964   21214739.7084
     -2079.1314      -1620.0934         55.0004         49.0004
 -10828851.83549  -8429495.63148  22558209.7094   22558211.2534   22558209.7064
      2829.5004       2204.7814         51.0004         44.0004
 -15176485.91149 -11572682.34148  22177895.3514   22177897.1124   22177895.5564
     -2527.1064      -1969.1774         52.0004         45.0004
 -25976832.31049 -20197361.17949  20395644.5424   20395647.8714   20395644.4454
     -1097.7944       -855.4224         56.0004         50.0004
 06  1 11 13 16 41.0000000  0  9G 3G29G18G27G19G16G22G21G15
 -23052102.19349 -17920798.64749  20663922.9654   20663926.2314   20663923.0624
      1488.5284       1159.9024         56.0004         50.0004
    -18522.98147    -10231.88747  25164719.8824   25164723.8224   25164719.8514
       246.1984        191.8334         41.0004         36.0004
 -17800880.60449 -13823552.01948  22031527.4564   22031528.9064   22031527.1844
       774.1224        603.2224         53.0004         46.0004
  -3045952.03247  -2326156.47147  24956953.1124   24956960.0094   24956953.9664
       914.3884        712.5124         40.0004         37.0004
  -8697971.73548  -6736831.73048  23485767.0834   23485770.0144   23485768.6934
      2984.6014       2325.6784         46.0004         42.0004
 -20225668.71749 -15697774.78149  21215135.5184   21215138.2194   21215135.5174
     -2079.4774      -1620.3734         55.0004         49.0004
 -10831680.84049  -8431700.04748  22557671.2714   22557672.5184   22557671.7414
      2829.3804       2204.7104         51.0004         44.0004
 -15173958.36849 -11570712.83148  22178376.3564   22178377.9364   22178375.9004
     -2527.0964      -1969.1664         52.0004         45.0004
 -25975733.86749 -20196505.24949  20395853.7044   20395856.9594   20395853.5484
     -1098.1614       -855.7094         56.0004         50.0004
 06  1 11 13 16 42.0000000  0  9G 3G29G18G27G19G16G22G21G15
 -23053589.81849 -17921957.83449  20663639.8344   20663643.0314   20663639.9844
      1487.3904       1159.0084         56.0004         50.0004
    -18768.39447    -10423.11747  25164672.9184   25164676.7844   25164672.0854
       245.0814        190.9694         41.0004         36.0004
 -17801653.76649 -13824154.48248  22031380.2924   22031382.5524   22031380.3004
       772.7964        602.1834         53.0004         46.0004
  -3046865.65748  -2326868.38447  24956779.6334   24956785.3474   24956780.4894
       913.8084        712.0604         42.0004         37.0004
  -8700955.51848  -6739156.75048  23485199.0564   23485202.6844   23485199.4604
      2983.7444       2324.9884         46.0004         42.0004
 -20223588.24349 -15696153.63149  21215531.5134   21215534.1794   21215531.3724
     -2080.7684      -1621.3794         55.0004         49.0004
 -10834509.32249  -8433904.05648  22557132.9574   22557134.8144   22557133.2034
      2828.2064       2203.7944         51.0004         44.0004
 -15171430.37849 -11568742.96748  22178857.3814   22178859.7424   22178857.0374
     -2528.1444      -1969.9874         52.0004         45.0004
 -25974634.75649 -20195648.79849  20396062.9374   20396065.9114   20396062.8014
     -1099.3884       -856.6674         56.0004         50.0004
 06  1 11 13 16 43.0000000  0  9G 3G29G18G27G19G16G22G21G15
 -23055077.14349 -17923116.79049  20663356.8294   20663360.2394   20663356.9024
      1487.1254       1158.8054         56.0004         50.0004
    -19013.32047    -10613.96447  25164626.1084   25164630.5214   25164624.7134
       244.8334        190.7804         41.0004         36.0004
 -17802426.41449 -13824756.54248  22031233.3144   22031235.3294   22031233.0474
       772.4024        601.8744         53.0004         46.0004
  -3047778.83947  -2327579.95747  24956606.1144   24956611.7764   24956606.2434
       913.0704        711.4864         41.0004         37.0004
  -8703939.28448  -6741481.75848  23484631.1564   23484635.2594   23484632.0244
      2983.7964       2325.0414         46.0004         42.0004
 -20221507.35149 -15694532.15849  21215927.5824   21215929.9184   21215927.5744
     -2081.2174      -1621.7194         55.0004         49.0004
 -10837337.53449  -8436107.86248  22556594.6754   22556596.6994   22556593.8964
      2827.9984       2203.6514         51.0004         44.0004
 -15168902.18049 -11566772.94248  22179338.3744   22179340.2274   22179338.6854
     -2528.5634      -1970.3274         52.0004         45.0004
 -25973535.24049 -20194792.03149  20396272.2474   20396275.2394   20396271.8384
     -1099.8204       -856.9954         56.0004         50.0004
 06  1 11 13 16 44.0000000  0  9G 3G29G18G27G19G16G22G21G15
 -23056564.02449 -17924275.39649  20663073.8944   20663077.0914   20663074.1854
      1486.7154       1158.4754         56.0004         50.0004
    -19257.62247    -10804.32646  25164579.2784   25164584.5474   25164577.3114
       244.0624        190.1814         41.0004         35.0004
 -17803198.38149 -13825358.08048  22031086.3344   22031087.5004   22031085.9664
       771.7224        601.3514         53.0004         46.0004
  -3048691.45847  -2328291.08947  24956432.6304   24956437.6654   24956432.7184
       912.7584        711.2374         41.0004         37.0004
  -8706922.89648  -6743806.64948  23484063.4574   23484067.4524   23484064.1204
      2983.3624       2324.6814         46.0004         42.0004
 -20219425.89549 -15692910.24349  21216323.6694   21216326.0504   21216323.4454
     -2081.6864      -1622.0924         55.0004         49.0004
 -10840165.32749  -8438311.33848  22556056.4894   22556057.9284   22556056.5114
      2827.5934       2203.3244         51.0004         44.0004
 -15166373.65049 -11564802.66048  22179819.4674   22179821.5784   22179819.1964
     -2528.7434      -1970.4314         52.0004         45.0004
 -25972435.16449 -20193934.83149  20396481.6484   20396484.7374   20396481.2234
     -1100.2694       -857.3524         56.0004         50.0004
 06  1 11 13 16 45.0000000  0  9G 3G29G18G27G19G16G22G21G15
 -23058050.47549 -17925433.67249  20662791.0714   20662794.5044   20662791.1484
      1486.4284       1158.2604         56.0004         50.0004
    -19501.32848    -10994.23047  25164532.5384   25164537.8714   25164531.4874
       243.7314        189.9244         42.0004         36.0004
 -17803969.70349 -13825959.10948  22030939.6204   22030941.8364   22030939.5954
       771.1224        600.8874         53.0004         46.0004
  -3049603.47747  -2329001.75347  24956259.3004   24956263.5904   24956258.4104
       911.4854        710.2454         41.0004         37.0004
  -8709906.36948  -6746131.43548  23483495.6234   23483500.4754   23483496.8874
      2983.5374       2324.8374         46.0004         42.0004
 -20217343.88649 -15691287.90249  21216719.8244   21216722.4624   21216719.7004
     -2082.0784      -1622.3904         55.0004         49.0004
 -10842992.71949  -8440514.50048  22555518.3934   22555520.7114   22555517.9264
      2827.2484       2203.0664         51.0004         44.0004
 -15163844.78349 -11562832.11448  22180300.6724   22180303.3044   22180300.8724
     -2528.8854      -1970.5564         52.0004         45.0004
 -25971334.54549 -20193077.20649  20396691.1174   20396693.8724   20396690.7364
     -1100.7424       -857.7154         56.0004         50.0004
 06  1 11 13 16 46.0000000  0  9G 3G29G18G27G19G16G22G21G15
 -23059536.56049 -17926591.66049  20662508.3384   20662511.6094   20662508.4394
      1485.2534       1157.3374         56.0004         50.0004
    -19744.45648    -11183.67747  25164486.4524   25164492.0334   25164486.7984
       242.2054        188.7154         42.0004         36.0004
 -17804740.43649 -13826559.67948  22030792.9614   22030794.7044   22030793.0944
       769.8124        599.8474         53.0004         46.0004
  -3050515.03947  -2329712.06147  24956086.0224   24956090.1174   24956085.0744
       909.7974        708.9334         41.0004         37.0004
  -8712889.75448  -6748456.14748  23482928.0664   23482931.6174   23482929.7164
      2982.5994       2324.1004         47.0004         42.0004
 -20215261.38849 -15689665.17849  21217116.0894   21217118.7044   21217116.1924
     -2083.3404      -1623.3894         55.0004         49.0004
 -10845819.77249  -8442717.40148  22554980.3854   22554980.9994   22554981.2704
      2826.2054       2202.2444         51.0004         44.0004
 -15161315.65149 -11560861.36148  22180782.0404   22180783.9884   22180782.3574
     -2530.0854      -1971.5134         52.0004         45.0004
 -25970233.45049 -20192219.20949  20396900.6524   20396903.5304   20396900.2614
     -1102.0504       -858.7454         56.0004         50.0004
 06  1 11 13 16 47.0000000  0  9G 3G29G18G27G19G16G22G21G15
 -23061022.15349 -17927749.26349  20662225.6044   20662228.8434   20662225.6324
      1484.6884       1156.8954         56.0004         50.0004
    -19986.92348    -11372.61047  25164440.8684   25164446.3844   25164441.9154
       241.3794        188.0814         42.0004         36.0004
 -17805510.44949 -13827159.68548  22030646.4394   22030647.8864   22030646.1194
       768.9584        599.1764         53.0004         46.0004
  -3051425.96647  -2330421.87347  24955912.9894   24955915.9634   24955912.2064
       909.3914        708.6244         38.0004         37.0004
  -8715872.94148  -6750780.70948  23482360.4664   23482363.9014   23482361.3474
      2982.2864       2323.8514         46.0004         42.0004
 -20213178.28349 -15688041.97849  21217512.4834   21217514.8984   21217512.2974
     -2084.0174      -1623.9044         55.0004         49.0004
 -10848646.35849  -8444919.93148  22554442.5594   22554445.3074   22554443.0224
      2825.6644       2201.8204         51.0004         44.0004
 -15158786.14349 -11558890.31548  22181263.3764   22181265.2864   22181263.0894
     -2530.3194      -1971.6714         52.0004         45.0004
 -25969131.75249 -20191360.74249  20397110.2524   20397112.8534   20397109.8384
     -1102.6064       -859.1704         56.0004         50.0004
 06  1 11 13 16 48.0000000  0  9G 3G29G18G27G19G16G22G21G15
 -23062507.46049 -17928906.64549  20661943.0044   20661946.3194   20661942.9944
      1485.0794       1157.2014         56.0004         50.0004
    -20228.91848    -11561.17647  25164395.3144   25164400.0314   25164396.0814
       241.6244        188.2874         42.0004         36.0004
 -17806279.96549 -13827759.30848  22030500.0534   22030502.3094   22030500.0414
       769.1594        599.3474         53.0004         46.0004
  -3052336.49447  -2331131.37547  24955739.8834   24955742.5504   24955738.7514
       909.9864        709.0814         40.0004         37.0004
  -8718856.13448  -6753105.27448  23481792.8224   23481795.8354   23481793.6684
      2983.1164       2324.5044         46.0004         42.0004
 -20211094.76749 -15686418.45949  21217908.9064   21217911.5464   21217908.9094
     -2083.8834      -1623.8044         55.0004         49.0004
 -10851472.68249  -8447122.26048  22553904.7624   22553905.9224   22553905.3914
      2826.0194       2202.0894         51.0004         44.0004
 -15156256.42849 -11556919.11248  22181744.6744   22181746.7874   22181745.0244
     -2529.9754      -1971.4134         52.0004         45.0004
 -25968029.64749 -20190501.95949  20397319.9164   20397323.1524   20397319.5694
     -1102.4834       -859.0744         56.0004         50.0004
 06  1 11 13 16 49.0000000  0  9G 3G29G18G27G19G16G22G21G15
 -23063992.26749 -17930063.63849  20661660.4744   20661663.6314   20661660.5294
      1485.4124       1157.4684         56.0004         50.0004
    -20470.25248    -11749.22547  25164349.4964   25164354.8514   25164350.3554
       241.7694        188.3984         42.0004         36.0004
 -17807048.76549 -13828358.37648  22030353.6464   22030355.8234   22030353.6124
       769.3584        599.4994         53.0004         46.0004
  -3053246.41747  -2331840.40447  24955566.5414   24955569.2954   24955565.0524
       910.5344        709.5064         41.0004         37.0004
  -8721839.11948  -6755429.67248  23481225.2644   23481228.5854   23481226.0834
      2983.6494       2324.9174         47.0004         42.0004
 -20209010.63149 -15684794.45549  21218305.4984   21218307.8114   21218305.7194
     -2083.6664      -1623.6394         55.0004         49.0004
 -10854298.53249  -8449324.21748  22553367.0664   22553368.6704   22553366.8314
      2826.3994       2202.4054         51.0004         44.0004
 -15153726.33749 -11554947.61148  22182226.1354   22182227.7704   22182226.4784
     -2529.4424      -1970.9954         52.0004         45.0004
 -25966926.94349 -20189642.70849  20397529.6704   20397532.7064   20397529.4554
     -1102.1724       -858.8324         56.0004         50.0004
 06  1 11 13 16 50.0000000  0  9G 3G29G18G27G19G16G22G21G15
 -23065476.64449 -17931220.29649  20661377.9964   20661381.2354   20661378.0664
      1484.3444       1156.6344         56.0004         50.0004
    -20710.93548    -11936.76847  25164303.9854   25164309.4714   25164305.0094
       240.2934        187.2484         43.0004         36.0004
 -17807816.90549 -13828956.92748  22030207.3914   22030209.8994   22030207.3094
       767.8944        598.3724         53.0004         46.0004
  -3054155.69847  -2332548.93447  24955393.5384   24955396.3004   24955392.0334
       909.1764        708.4474         41.0004         37.0004
  -8724821.96948  -6757753.96748  23480657.8004   23480661.5294   23480658.4604
      2983.1794       2324.5664         47.0004         42.0004
 -20206925.94549 -15683170.02849  21218702.1704   21218704.9754   21218702.0574
     -2084.7304      -1624.4584         55.0004         49.0004
 -10857123.97849  -8451525.86248  22552829.2964   22552830.5314   22552829.1994
      2825.4384       2201.6204         51.0004         44.0004
 -15151195.90449 -11552975.84648  22182707.6894   22182710.3264   22182707.7864
     -2530.4494      -1971.7744         52.0004         45.0004
 -25965823.68649 -20188783.02849  20397739.5784   20397742.6414   20397739.2674
     -1103.4134       -859.8014         56.0004         50.0004
 06  1 11 13 16 51.0000000  0  9G 3G29G18G27G19G16G22G21G15
 -23066960.66149 -17932376.67349  20661095.5324   20661098.6694   20661095.6704
      1484.1144       1156.4514         56.0004         50.0004
    -20951.11848    -12123.92447  25164258.3374   25164262.6404   25164259.1084
       240.3034        187.2434         42.0004         36.0004
 -17808584.47649 -13829555.03048  22030061.2354   22030063.3704   22030060.7964
       767.5934        598.1164         53.0004         46.0004
  -3055064.53948  -2333257.12247  24955220.8054   24955223.3994   24955219.1124
       909.2974        708.5394         42.0004         37.0004
  -8727804.73848  -6760078.19948  23480090.3414   23480093.8204   23480091.1314
      2983.0494       2324.4424         47.0004         42.0004
 -20204840.78449 -15681545.22649  21219098.8704   21219101.3564   21219099.3004
     -2085.1054      -1624.7624         55.0004         49.0004
 -10859949.08749  -8453727.24348  22552291.6264   22552292.9474   22552291.9574
      2825.4434       2201.6424         51.0004         44.0004
 -15148665.21349 -11551003.87948  22183189.3104   22183190.4614   22183189.4724
     -2530.5124      -1971.8484         52.0004         45.0004
 -25964719.96449 -20187922.98449  20397949.4864   20397952.8654   20397949.4654
     -1103.6584       -859.9984         56.0004         50.0004
 06  1 11 13 16 52.0000000  0  9G 3G29G18G27G19G16G22G21G15
 -23068444.12549 -17933532.61749  20660813.2094   20660816.3194   20660813.3264
      1483.0634       1155.6344         56.0004         50.0004
    -21190.53048    -12310.47247  25164212.7644   25164216.6774   25164213.3664
       238.7294        186.0194         42.0004         36.0004
 -17809351.25849 -13830152.52148  22029915.2554   22029918.3484   22029915.3604
       766.3664        597.1794         53.0004         46.0004
  -3055972.69747  -2333964.77647  24955047.8314   24955050.6834   24955046.8364
       907.7664        707.3574         40.0004         37.0004
  -8730787.23948  -6762402.22248  23479523.0074   23479525.9384   23479523.6604
      2982.3274       2323.8864         47.0004         42.0004
 -20202754.93849 -15679919.89049  21219495.6954   21219498.5924   21219495.7954
     -2086.4154      -1625.7784         54.0004         49.0004
 -10862773.65049  -8455928.20548  22551754.0704   22551756.5774   22551754.7744
      2824.2014       2200.6974         51.0004         44.0004
 -15146134.07649 -11549031.56548  22183671.1214   22183673.1554   22183671.2244
     -2531.3034      -1972.4424         52.0004         45.0004
 -25963615.57049 -20187062.41849  20398159.5814   20398162.7774   20398159.3694
     -1104.8424       -860.9164         56.0004         50.0004
 06  1 11 13 16 53.0000000  0  9G 3G29G18G27G19G16G22G21G15
 -23069927.39649 -17934688.41349  20660530.9294   20660534.2114   20660530.9554
      1482.7734       1155.4044         56.0004         50.0004
    -21429.58948    -12496.75147  25164167.3634   25164171.4114   25164167.6294
       238.3134        185.6944         43.0004         36.0004
 -17810117.62049 -13830749.68748  22029769.3874   22029771.5764   22029769.6724
       765.6954        596.6444         53.0004         46.0004
  -3056880.50647  -2334672.16047  24954874.8014   24954877.9444   24954873.5644
       906.8864        706.6614         40.0004         37.0004
  -8733769.83949  -6764726.32448  23478955.6614   23478958.9484   23478956.1934
      2982.1094       2323.7094         48.0004         42.0004
 -20200668.78249 -15678294.31749  21219892.5904   21219895.4494   21219893.0084
     -2086.7934      -1626.0724         55.0004         49.0004
 -10865598.05149  -8458129.03348  22551216.5034   22551217.5754   22551216.6014
      2823.7564       2200.3304         51.0004         44.0004
 -15143602.82849 -11547059.16048  22184152.8914   22184154.8764   22184152.8024
     -2531.9234      -1972.9374         52.0004         45.0004
 -25962510.87049 -20186201.61349  20398369.7054   20398372.9784   20398369.7054
     -1105.3674       -861.3264         56.0004         50.0004
 06  1 11 13 16 54.0000000  0  9G 3G29G18G27G19G16G22G21G15
 -23071410.16449 -17935843.81649  20660248.7384   20660252.1864   20660248.8974
      1482.9294       1155.5334         56.0004         50.0004
    -21667.96348    -12682.49447  25164122.4054   25164125.9564   25164121.8234
       238.5334        185.8724         43.0004         36.0004
 -17810883.25649 -13831346.28648  22029623.6774   22029625.4594   22029623.7054
       765.7094        596.6584         53.0004         46.0004
  -3057787.68847  -2335379.05647  24954702.0634   24954704.7314   24954700.7884
       907.2524        706.9444         39.0004         37.0004
  -8736752.21748  -6767050.25548  23478388.5794   23478391.4374   23478388.6644
      2982.6754       2324.1714         47.0004         43.0004
 -20198582.01449 -15676668.26549  21220289.6254   21220292.3624   21220290.2014
     -2086.7034      -1626.0024         55.0004         49.0004
 -10868421.97449  -8460329.48748  22550679.1384   22550680.9114   22550679.2394
      2823.9834       2200.5164         51.0004         44.0004
 -15141071.19149 -11545086.45748  22184634.7104   22184636.2504   22184634.3884
     -2531.4754      -1972.5734         52.0004         45.0004
 -25961405.55149 -20185340.32649  20398579.9614   20398583.4094   20398579.9714
     -1105.2624       -861.2404         56.0004         50.0004
 06  1 11 13 16 55.0000000  0  9G 3G29G18G27G19G16G22G21G15
 -23072892.52349 -17936998.90149  20659966.6354   20659969.9424   20659966.7184
      1482.2824       1155.0314         56.0004         50.0004
    -21905.75448    -12867.78347  25164077.2324   25164080.5344   25164077.3394
       237.5024        185.0604         42.0004         36.0004
 -17811648.26449 -13831942.39648  22029478.0864   22029480.4524   22029478.0724
       764.6224        595.8124         53.0004         46.0004
  -3058694.36347  -2336085.55447  24954528.9634   24954530.7804   24954527.8094
       907.2124        706.9174         40.0004         37.0004
  -8739734.49349  -6769374.11048  23477821.3614   23477823.9814   23477821.5454
      2982.4124       2323.9634         48.0004         43.0004
 -20196494.70649 -15675041.79049  21220686.8484   21220690.2354   21220687.2764
     -2087.5944      -1626.6944         55.0004         49.0004
 -10871245.52549  -8462529.66448  22550141.9264   22550143.5984   22550142.4044
      2823.4514       2200.1064         51.0004         44.0004
 -15138539.25349 -11543113.51948  22185116.6054   22185118.0104   22185116.4214
     -2532.3774      -1973.2764         52.0004         45.0004
 -25960299.72249 -20184478.64149  20398790.4174   20398793.8554   20398790.2484
     -1106.0824       -861.8784         56.0004         50.0004
 06  1 11 13 16 56.0000000  0  9G 3G29G18G27G19G16G22G21G15
 -23074374.43149 -17938153.63349  20659684.6114   20659687.7134   20659684.7824
      1481.3304       1154.2764         56.0004         50.0004
    -22142.90848    -13052.57847  25164031.9234   25164035.2144   25164031.6444
       236.1934        184.0454         42.0004         36.0004
 -17812412.59949 -13832537.98248  22029332.6014   22029334.9434   22029332.7754
       763.5804        594.9754         53.0004         46.0004
  -3059600.43447  -2336791.58247  24954356.5354   24954359.2394   24954355.3524
       906.0474        706.0004         41.0004         37.0004
  -8742716.58549  -6771697.81648  23477254.1284   23477256.8364   23477254.1964
      2981.3744       2323.1314         48.0004         43.0004
 -20194406.83149 -15673414.87349  21221084.2514   21221087.4464   21221084.4504
     -2088.6174      -1627.4964         55.0004         49.0004
 -10874068.63149  -8464729.48448  22549604.8444   22549606.6414   22549604.6704
      2822.3444       2199.2074         51.0004         44.0004
 -15136006.94949 -11541140.29448  22185598.4864   22185600.3204   22185598.1464
     -2532.9084      -1973.6944         52.0004         45.0004
 -25959193.31749 -20183616.50649  20399000.9044   20399004.3184   20399000.9684
     -1107.1594       -862.7374         56.0004         50.0004
 06  1 11 13 16 57.0000000  0  9G 3G29G18G27G19G16G22G21G15
 -23075856.02049 -17939308.11749  20659402.7544   20659406.1464   20659402.7064
      1481.4764       1154.3964         56.0004         50.0004
    -22379.57348    -13236.99647  25163986.8984   25163991.3534   25163985.5294
       236.5724        184.3474         42.0004         36.0004
 -17813176.38749 -13833133.14048  22029187.1874   22029190.2404   22029188.1454
       763.5574        594.9734         53.0004         46.0004
  -3060506.03148  -2337497.24347  24954184.0494   24954187.2364   24954183.9314
       904.6204        704.8924         42.0004         37.0004
  -8745698.65849  -6774021.50748  23476686.8734   23476688.6074   23476685.8854
      2982.0044       2323.6494         48.0004         43.0004
 -20192318.51149 -15671787.61249  21221481.7224   21221484.5394   21221481.9624
     -2088.4754      -1627.3824         55.0004         49.0004
 -10876891.44149  -8466929.07048  22549067.7944   22549068.6864   22549067.9664
      2822.7274       2199.5454         51.0004         45.0004
 -15133474.44149 -11539166.91248  22186080.3684   22186081.7474   22186079.7324
     -2532.4804      -1973.3584         52.0004         45.0004
 -25958086.48849 -20182754.04349  20399211.5904   20399214.9894   20399211.7034
     -1107.0194       -862.6074         56.0004         50.0004
 06  1 11 13 16 58.0000000  0  9G 3G29G18G27G19G16G22G21G15
 -23077337.19449 -17940462.28149  20659120.9584   20659124.1934   20659120.9364
      1481.7754       1154.6364         56.0004         50.0004
    -22615.61748    -13420.92847  25163941.8314   25163946.8144   25163940.7784
       236.4044        184.2194         43.0004         36.0004
 -17813939.53549 -13833727.79848  22029041.9084   22029044.5094   22029042.3034
       763.6924        595.0934         53.0004         46.0004
  -3061411.08847  -2338202.48347  24954011.4884   24954015.4844   24954011.9474
       905.6104        705.6674         40.0004         37.0004
  -8748680.61649  -6776345.10848  23476119.5174   23476120.3104   23476119.6004
      2982.7744       2324.2394         48.0004         43.0004
 -20190229.66349 -15670159.93949  21221879.2944   21221881.7844   21221879.2704
     -2088.3354      -1627.2704         55.0004         49.0004
 -10879713.86449  -8469128.36648  22548530.8374   22548532.9124   22548530.9054
      2823.0664       2199.7914         51.0004         45.0004
 -15130941.60149 -11537193.27248  22186562.2134   22186564.1674   22186562.2084
     -2532.1804      -1973.1284         52.0004         45.0004
 -25956979.12949 -20181891.16749  20399422.3474   20399425.7214   20399422.3704
     -1106.8374       -862.4684         56.0004         50.0004
 06  1 11 13 16 59.0000000  0  9G 3G29G18G27G19G16G22G21G15
 -23078817.87649 -17941616.05849  20658839.2854   20658842.3064   20658839.4344
      1480.5864       1153.6984         56.0004         50.0004
    -22851.01648    -13604.35447  25163897.0164   25163900.6984   25163896.6764
       235.3124        183.3584         42.0004         36.0004
 -17814701.97249 -13834321.90448  22028896.7974   22028899.2474   22028897.2984
       762.2274        593.9314         53.0004         46.0004
  -3062315.58247  -2338907.28147  24953839.3984   24953844.0274   24953839.8084
       904.5104        704.8114         41.0004         37.0004
  -8751662.36949  -6778668.54648  23475552.2714   23475553.2174   23475552.4194
      2982.0284       2323.6534         48.0004         43.0004
 -20188140.20849 -15668531.79349  21222277.0064   21222279.9314   21222277.0584
     -2089.5754      -1628.2424         55.0004         49.0004
 -10882535.82249  -8471327.29248  22547993.9204   22547994.8234   22547994.0404
      2821.8814       2198.8674         51.0004         44.0004
 -15128408.39549 -11535219.34448  22187044.2274   22187045.9034   22187043.8074
     -2533.3024      -1974.0024         52.0004         45.0004
 -25955871.17249 -20181027.82449  20399633.2684   20399636.4234   20399633.3054
     -1108.1324       -863.4784         56.0004         50.0004
 06  1 11 13 17  0.0000000  0  9G 3G29G18G27G19G16G22G21G15
 -23080298.23849 -17942769.58749  20658557.6514   20658560.9434   20658557.6014
      1480.1254       1153.3524         56.0004         50.0004
    -23085.88248    -13787.36447  25163852.2504   25163855.1654   25163851.3624
       234.5754        182.7924         43.0004         36.0004
 -17815463.86849 -13834915.58948  22028751.9124   22028754.7874   22028751.8444
       761.5674        593.4214         53.0004         46.0004
  -3063219.58448  -2339611.69847  24953667.4324   24953672.6474   24953667.7964
       903.8034        704.2634         42.0004         37.0004
  -8754644.07449  -6780991.95348  23474984.8254   23474986.4694   23474984.5854
      2981.8394       2323.5254         48.0004         43.0004
 -20186050.30949 -15666903.30249  21222674.8214   21222677.3404   21222674.6244
     -2090.0714      -1628.6144         55.0004         49.0004
 -10885357.48749  -8473525.99648  22547456.9344   22547458.0664   22547456.4944
      2821.4954       2198.5834         51.0004         44.0004
 -15125874.95549 -11533245.23448  22187526.3544   22187527.8554   22187526.5574
     -2533.7344      -1974.3254         52.0004         45.0004
 -25954762.77749 -20180164.14149  20399844.2324   20399847.6514   20399844.1894
     -1108.6964       -863.9134         56.0004         50.0004
 06  1 11 13 17  1.0000000  0  9G 3G29G18G27G19G16G22G21G15
 -23081778.04449 -17943922.68149  20658276.1364   20658279.0984   20658276.0444
      1480.1814       1153.3934         56.0004         50.0004
    -23320.01548    -13969.80447  25163807.8584   25163810.7324   25163806.7904
       234.3624        182.6264         43.0004         36.0004
 -17816224.98649 -13835508.66648  22028607.0494   22028609.5074   22028607.3264
       761.4484        593.3344         53.0004         46.0004
  -3064122.88147  -2340315.56547  24953495.3784   24953500.8524   24953496.4664
       904.1884        704.5494         41.0004         37.0004
  -8757625.51349  -6783315.15048  23474417.5304   23474418.8704   23474417.8814
      2981.9784       2323.6144         48.0004         43.0004
 -20183959.72949 -15665274.27849  21223072.7144   21223075.1604   21223072.5774
     -2090.1574      -1628.6854         55.0004         49.0004
 -10888178.61149  -8475724.27048  22546919.9224   22546921.4874   22546919.7174
      2821.5274       2198.5944         51.0004         44.0004
 -15123341.07149 -11531270.78148  22188008.4514   22188011.5184   22188008.7664
     -2533.3344      -1974.0154         52.0004         45.0004
 -25953653.72249 -20179299.94049  20400055.3224   20400058.3304   20400055.1234
     -1108.6404       -863.8714         56.0004         50.0004
 06  1 11 13 17  2.0000000  0  9G 3G29G18G27G19G16G22G21G15
 -23083257.51649 -17945075.51649  20657994.6684   20657997.7034   20657994.2624
      1479.1564       1152.5874         56.0004         50.0004
    -23553.64748    -14151.85447  25163763.1824   25163765.2994   25163762.4304
       233.3454        181.8204         42.0004         36.0004
 -17816985.54349 -13836101.30548  22028462.4124   22028465.6164   22028462.5964
       760.0104        592.2114         53.0004         46.0004
  -3065025.71347  -2341019.06647  24953323.2304   24953329.5134   24953324.2414
       902.1314        702.9594         41.0004         37.0004
  -8760606.91049  -6785638.31548  23473850.3344   23473852.0974   23473850.0364
      2981.1134       2322.9444         48.0004         43.0004
 -20181868.69449 -15663644.90049  21223470.7054   21223473.0294   21223470.4754
     -2091.4334      -1629.6954         55.0004         49.0004
 -10890999.42249  -8477922.29948  22546382.9864   22546384.6274   22546382.7394
      2820.3064       2197.6294         51.0004         44.0004
 -15120806.94049 -11529296.13248  22188490.6824   22188492.6904   22188490.2644
     -2534.6444      -1975.0594         52.0004         45.0004
 -25952544.20549 -20178435.38049  20400266.4954   20400269.8164   20400266.4854
     -1109.9684       -864.9144         56.0004         50.0004
 06  1 11 13 17  3.0000000  0  9G 3G29G18G27G19G16G22G21G15
 -23084736.61249 -17946228.05849  20657713.0564   20657716.1364   20657712.7804
      1479.2254       1152.6464         56.0004         50.0004
    -23786.69548    -14333.44947  25163718.5844   25163720.6784   25163718.1864
       232.9034        181.4804         42.0004         36.0004
 -17817745.51049 -13836693.48748  22028317.7994   22028320.4284   22028317.8564
       760.0304        592.2364         53.0004         46.0004
  -3065928.09147  -2341722.21647  24953151.4754   24953157.7184   24953153.2314
       903.2284        703.8174         41.0004         37.0004
  -8763588.22649  -6787961.42148  23473283.2294   23473284.7934   23473282.5264
      2981.7044       2323.4024         48.0004         43.0004
 -20179777.16649 -15662015.13949  21223868.7224   21223871.0574   21223868.4014
     -2091.4444      -1629.6904         55.0004         49.0004
 -10893819.89349  -8480120.06648  22545846.1214   22545848.2284   22545846.8594
      2820.5884       2197.8644         51.0004         44.0004
 -15118272.55349 -11527321.28448  22188972.9644   22188975.5674   22188973.2114
     -2534.2674      -1974.7354         52.0004         45.0004
 -25951434.21649 -20177570.45249  20400477.7214   20400480.7684   20400477.6064
     -1109.9814       -864.9194         56.0004         50.0004
 06  1 11 13 17  4.0000000  0  9G 3G29G18G27G19G16G22G21G15
 -23086215.28249 -17947380.26949  20657431.5614   20657434.7204   20657431.6364
      1478.9934       1152.4654         56.0004         50.0004
    -24019.14848    -14514.58047  25163674.0394   25163677.1064   25163673.4184
       232.4184        181.1104         42.0004         36.0004
 -17818504.82249 -13837285.16148  22028173.3724   22028175.7134   22028173.8004
       759.6164        591.9104         53.0004         46.0004
  -3066829.84347  -2342424.87947  24952979.9814   24952987.4034   24952981.7004
       901.6684        702.5844         41.0004         37.0004
  -8766569.39449  -6790284.40548  23472716.1354   23472716.8114   23472715.4814
      2981.6214       2323.3344         48.0004         43.0004
 -20177685.09549 -15660384.95949  21224266.9334   21224269.0504   21224266.6624
     -2091.6924      -1629.8944         55.0004         49.0004
 -10896639.95949  -8482317.51848  22545309.3954   22545310.7584   22545309.6154
      2820.5334       2197.8164         51.0004         44.0004
 -15115737.84249 -11525346.19148  22189455.2754   22189457.3634   22189455.2134
     -2534.1824      -1974.6964         52.0004         45.0004
 -25950323.68649 -20176705.10549  20400689.0774   20400692.4054   20400688.9934
     -1110.2644       -865.1434         56.0004         50.0004
 06  1 11 13 17  5.0000000  0  9G 3G29G18G27G19G16G22G21G15
 -23087693.54249 -17948532.16049  20657150.1704   20657153.4894   20657150.2034
      1477.7534       1151.4884         56.0004         50.0004
    -24251.02848    -14695.26247  25163629.4784   25163632.4224   25163628.8854
       231.4064        180.3114         42.0004         36.0004
 -17819263.49649 -13837876.33548  22028029.0694   22028031.3324   22028028.9454
       758.0964        590.7234         53.0004         46.0004
  -3067731.02447  -2343127.09747  24952808.9214   24952815.8654   24952810.1054
       899.4474        700.8684         41.0004         37.0004
  -8769550.44849  -6792607.30548  23472149.0344   23472149.5264   23472148.6754
      2980.6454       2322.5784         49.0004         43.0004
 -20175592.49449 -15658754.36049  21224665.2274   21224667.5804   21224664.8874
     -2093.1054      -1630.9914         55.0004         49.0004
 -10899459.64049  -8484514.67248  22544772.7924   22544774.7824   22544773.3344
      2819.1734       2196.7464         51.0004         44.0004
 -15113202.82149 -11523370.84448  22189937.6364   22189939.7434   22189938.2664
     -2535.2954      -1975.5444         52.0004         45.0004
 -25949212.63649 -20175839.35349  20400900.5874   20400903.7644   20400900.5004
     -1111.5934       -866.1834         56.0004         50.0004
 06  1 11 13 17  6.0000000  0  9G 3G29G18G27G19G16G22G21G15
 -23089171.31849 -17949683.67349  20656868.8394   20656872.1864   20656868.9054
      1477.5624       1151.3504         56.0004         50.0004
    -24482.22747    -14875.41747  25163585.2484   25163588.6714   25163585.6354
       230.8284        179.8804         41.0004         36.0004
 -17820021.46749 -13838466.96048  22027884.7404   22027887.1344   22027884.8264
       757.6204        590.3654         53.0004         46.0004
  -3068631.72848  -2343828.94147  24952637.5394   24952643.1214   24952638.1904
       900.6364        701.7874         42.0004         37.0004
  -8772531.30449  -6794930.05348  23471581.9524   23471582.8064   23471581.2854
      2980.6814       2322.6144         48.0004         43.0004
 -20173499.29449 -15657123.29749  21225063.6044   21225066.1184   21225063.5864
     -2093.4334      -1631.2364         55.0004         49.0004
 -10902278.87449  -8486711.48148  22544236.2994   22544237.7984   22544236.6964
      2819.0664       2196.6714         51.0004         45.0004
 -15110667.41849 -11521395.20548  22190420.1394   22190422.6874   22190420.0324
     -2535.4524      -1975.6564         52.0004         45.0004
 -25948100.99549 -20174973.13949  20401112.2414   20401115.3474   20401111.9624
     -1111.8834       -866.4014         56.0004         50.0004
 06  1 11 13 17  7.0000000  0  9G 3G29G18G27G19G16G22G21G15
 -23090648.78549 -17950834.94649  20656587.5904   20656591.0304   20656587.8684
      1477.7154       1151.4734         56.0004         50.0004
    -24712.94748    -15055.20547  25163541.1944   25163546.1044   25163542.3064
       230.7444        179.7984         42.0004         36.0004
 -17820778.89849 -13839057.16348  22027740.5934   22027743.3214   22027741.1444
       757.5744        590.3294         53.0004         46.0004
  -3069531.88748  -2344530.36247  24952466.3794   24952471.1624   24952466.4694
       899.9524        701.2604         42.0004         37.0004
  -8775512.13749  -6797252.77748  23471014.9574   23471015.4004   23471013.9844
      2980.9774       2322.8404         49.0004         43.0004
 -20171405.66349 -15655491.89849  21225462.0314   21225464.5834   21225461.5584
     -2093.5374      -1631.3274         55.0004         49.0004
 -10905097.80749  -8488908.04848  22543699.8974   22543702.2454   22543700.8554
      2819.0944       2196.6904         51.0004         44.0004
 -15108131.80049 -11519419.39848  22190902.6164   22190905.1474   22190902.9774
     -2535.2934      -1975.5314         52.0004         45.0004
 -25946988.92249 -20174106.58849  20401323.9324   20401326.9364   20401323.5644
     -1111.9924       -866.4784         56.0004         50.0004
 06  1 11 13 17  8.0000000  0  9G 3G29G18G27G19G16G22G21G15
 -23092125.84049 -17951985.89749  20656306.4234   20656310.1504   20656307.0884
      1476.5424       1150.5484         56.0004         50.0004
    -24943.04848    -15234.50147  25163497.4714   25163502.4414   25163498.7264
       229.3034        178.6884         42.0004         36.0004
 -17821535.69949 -13839646.87748  22027596.6144   22027599.1474   22027596.6594
       756.1894        589.2294         53.0004         46.0004
  -3070431.54848  -2345231.39547  24952295.7824   24952299.8674   24952295.5284
       898.3754        700.0304         42.0004         37.0004
  -8778492.86049  -6799575.41948  23470447.7714   23470447.7614   23470446.7594
      2980.3834       2322.3724         48.0004         43.0004
 -20169311.51149 -15653860.09049  21225860.5654   21225862.9594   21225860.0294
     -2094.6314      -1632.1874         55.0004         49.0004
 -10907916.36349  -8491104.33348  22543163.6774   22543165.6214   22543163.7954
      2818.0124       2195.8394         51.0004         45.0004
 -15105595.88449 -11517443.36148  22191385.1724   22191387.5754   22191385.2134
     -2536.3794      -1976.4184         52.0004         45.0004
 -25945876.33949 -20173239.63949  20401535.7174   20401538.7364   20401535.3544
     -1113.1814       -867.4204         56.0004         50.0004
 06  1 11 13 17  9.0000000  0  9G 3G29G18G27G19G16G22G21G15
 -23093602.43149 -17953136.48849  20656025.4484   20656029.1664   20656025.6004
      1476.5964       1150.5904         56.0004         50.0004
    -25172.53248    -15413.32247  25163453.8234   25163458.7884   25163455.5274
       229.3014        178.6744         42.0004         36.0004
 -17822291.80349 -13840236.04848  22027452.7784   22027454.9284   22027452.6604
       755.9314        589.0354         53.0004         46.0004
  -3071330.58548  -2345931.94247  24952125.0594   24952129.2314   24952124.9684
       898.5324        700.1464         42.0004         37.0004
  -8781473.40249  -6801897.92348  23469880.5804   23469880.8214   23469879.5064
      2980.5734       2322.5294         48.0004         43.0004
 -20167216.76849 -15652227.82449  21226259.1504   21226261.1384   21226258.5864
     -2094.7584      -1632.2884         55.0004         49.0004
 -10910734.47049  -8493300.26148  22542627.4664   22542629.0604   22542627.5954
      2818.0784       2195.8984         51.0004         45.0004
 -15103059.59049 -11515467.02748  22191867.7114   22191870.0024   22191868.1434
     -2536.3054      -1976.3514         52.0004         45.0004
 -25944763.18349 -20172372.24349  20401747.6284   20401750.4164   20401747.0814
     -1113.1364       -867.3794         56.0004         50.0004
 06  1 11 13 17 10.0000000  0  9G 3G29G18G27G19G16G22G21G15
 -23095078.60449 -17954286.75349  20655744.5284   20655748.3184   20655745.0474
      1475.9144       1150.0624         56.0004         50.0004
    -25401.40047    -15591.65847  25163410.2554   25163414.4244   25163412.1374
       228.4654        178.0154         41.0004         36.0004
 -17823047.26949 -13840824.72348  22027309.0224   22027311.7604   22027309.3594
       755.0474        588.3434         53.0004         46.0004
  -3072229.07347  -2346632.06447  24951954.4014   24951959.0914   24951953.6304
       897.9064        699.6724         41.0004         37.0004
  -8784453.81349  -6804220.32548  23469313.3474   23469313.6704   23469312.5814
      2980.2204       2322.2534         48.0004         43.0004
 -20165121.49149 -15650595.14149  21226657.7824   21226660.3444   21226657.3154
     -2095.4464      -1632.8174         55.0004         49.0004
 -10913552.18549  -8495495.87648  22542091.3594   22542092.2384   22542091.8234
      2817.5494       2195.4914         51.0004         44.0004
 -15100522.98949 -11513490.45748  22192350.2404   22192352.9414   22192351.0354
     -2536.6394      -1976.6004         52.0004         45.0004
 -25943649.49249 -20171504.43349  20401959.6664   20401962.3514   20401959.2764
     -1114.0224       -868.0724         56.0004         50.0004
 06  1 11 13 17 11.0000000  0  9G 3G29G18G27G19G16G22G21G15
 -23096554.41549 -17955436.73849  20655463.7244   20655467.3764   20655463.9334
      1475.7894       1149.9644         56.0004         50.0004
    -25629.73548    -15769.58047  25163366.6174   25163370.6534   25163368.8274
       227.9994        177.6664         42.0004         36.0004
 -17823802.15049 -13841412.94648  22027165.3614   22027167.8574   22027165.5934
       754.7524        588.1274         53.0004         46.0004
  -3073127.12747  -2347331.84547  24951784.2244   24951787.0934   24951782.9514
       898.0054        699.7404         41.0004         37.0004
  -8787434.14949  -6806542.66848  23468746.2194   23468746.5354   23468745.0124
      2980.4214       2322.4294         48.0004         43.0004
 -20163025.73149 -15648962.08149  21227056.4564   21227058.8184   21227056.3554
     -2095.8464      -1633.1314         54.0004         49.0004
 -10916369.54649  -8497691.22248  22541555.3394   22541556.4784   22541555.5844
      2817.2974       2195.2904         51.0004         45.0004
 -15097986.11649 -11511513.67348  22192832.9034   22192834.9664   22192833.3414
     -2536.9074      -1976.8174         51.0004         45.0004
 -25942535.32149 -20170636.24949  20402171.7584   20402174.2804   20402171.1224
     -1114.3604       -868.3324         56.0004         50.0004
 06  1 11 13 17 12.0000000  0  9G 3G29G18G27G19G16G22G21G15
 -23098029.78949 -17956586.38049  20655183.0164   20655186.5084   20655183.4434
      1475.7744       1149.9704         56.0004         50.0004
    -25857.44948    -15947.02147  25163323.2184   25163327.8394   25163324.0374
       228.1984        177.8194         42.0004         36.0004
 -17824556.37449 -13842000.65348  22027021.8134   22027023.8234   22027022.1434
       754.5434        587.9714         53.0004         46.0004
  -3074024.54447  -2348031.12747  24951613.7614   24951615.8854   24951612.7804
       898.2254        699.9144         41.0004         37.0004
  -8790414.33449  -6808864.88948  23468178.8984   23468178.5564   23468177.2634
      2980.6844       2322.6214         48.0004         43.0004
 -20160929.41949 -15647328.59249  21227455.2694   21227458.0144   21227455.2874
     -2095.9624      -1633.2024         54.0004         49.0004
 -10919186.50049  -8499886.25148  22541019.2594   22541021.0844   22541019.3104
      2817.3504       2195.3524         51.0004         44.0004
 -15095448.92149 -11509536.64048  22193315.6304   22193318.7224   22193316.0644
     -2536.7834      -1976.7054         52.0004         45.0004
 -25941420.61349 -20169767.64549  20402383.8804   20402386.5204   20402383.3014
     -1114.3694       -868.3214         56.0004         50.0004
 06  1 11 13 17 13.0000000  0  9G 3G29G18G27G19G16G22G21G15
 -23099504.72649 -17957735.68149  20654902.3974   20654905.7844   20654902.6454
      1474.9064       1149.2704         56.0004         50.0004
    -26084.55847    -16123.98547  25163280.2284   25163284.8804   25163281.6144
       226.8564        176.7674         41.0004         36.0004
 -17825309.93449 -13842587.83948  22026878.4274   22026881.0494   22026878.4094
       753.3394        587.0074         53.0004         46.0004
  -3074921.41847  -2348729.98847  24951443.1004   24951444.2474   24951441.6754
       896.4094        698.4854         41.0004         37.0004
  -8793394.38549  -6811187.00448  23467611.6184   23467611.8274   23467610.6644
      2980.0864       2322.1474         48.0004         43.0004
 -20158832.54949 -15645694.66649  21227854.1394   21227856.5824   21227853.9814
     -2096.9284      -1633.9694         55.0004         49.0004
 -10922003.04349  -8502080.95948  22540483.0524   22540484.5934   22540483.4634
      2816.4964       2194.6564         51.0004         44.0004
 -15092911.39049 -11507559.34548  22193798.5774   22193801.4174   22193799.4214
     -2537.7174      -1977.4544         51.0004         45.0004
 -25940305.35549 -20168898.61249  20402596.1124   20402598.6914   20402595.3724
     -1115.3914       -869.1414         56.0004         50.0004
 06  1 11 13 17 14.0000000  0  9G 3G29G18G27G19G16G22G21G15
 -23100979.28249 -17958884.68649  20654621.8744   20654625.3864   20654622.1484
      1475.2924       1149.5954         56.0004         50.0004
    -26311.06948    -16300.48747  25163237.2214   25163242.4564   25163238.8174
       227.1484        177.0014         42.0004         36.0004
 -17826062.89149 -13843174.55648  22026735.1304   22026737.9424   22026735.3144
       753.6264        587.2514         53.0004         46.0004
  -3075817.77848  -2349428.44847  24951272.4404   24951272.4864   24951270.7284
       896.4294        698.5204         42.0004         37.0004
  -8796374.33649  -6813509.04548  23467044.2124   23467045.5604   23467043.6974
      2980.7464       2322.6654         48.0004         43.0004
 -20156735.16949 -15644060.34449  21228253.0994   21228256.1094   21228253.3924
     -2096.8604      -1633.9094         55.0004         49.0004
 -10924819.21149  -8504275.37448  22539946.9604   22539948.4364   22539947.4004
      2816.8304       2194.9414         51.0004         45.0004
 -15090373.57249 -11505581.82748  22194281.5624   22194284.1604   22194282.0814
     -2537.1174      -1976.9624         52.0004         45.0004
 -25939189.60149 -20168029.19349  20402808.4004   20402810.8764   20402807.6724
     -1115.1754       -868.9594         56.0004         50.0004
 06  1 11 13 17 15.0000000  0  9G 3G29G18G27G19G16G22G21G15
 -23102453.42149 -17960033.36449  20654341.3424   20654344.9924   20654341.6674
      1472.9124       1147.7064         56.0004         50.0004
    -26537.00648    -16476.53847  25163194.1284   25163198.6924   25163195.1364
       224.7244        175.0954         42.0004         36.0004
 -17826815.20149 -13843760.77248  22026592.0174   22026594.1464   22026592.1294
       751.0454        585.2214         53.0004         46.0004
  -3076713.58248  -2350126.47747  24951102.1144   24951102.2614   24951100.5894
       893.9214        696.5604         42.0004         37.0004
  -8799354.16049  -6815830.98348  23466476.8424   23466477.5514   23466475.9454
      2978.5734       2320.9484         48.0004         43.0004
 -20154637.26849 -15642425.61549  21228652.1994   21228655.1384   21228652.5594
     -2099.1404      -1635.7194         54.0004         49.0004
 -10927635.00049  -8506469.49648  22539410.9194   22539413.1574   22539410.7444
      2814.6444       2193.2194         51.0004         45.0004
 -15087835.44649 -11503604.06648  22194764.5614   22194767.1124   22194764.9484
     -2539.1344      -1978.5664         52.0004         45.0004
 -25938073.32449 -20167159.36549  20403020.7174   20403023.4064   20403020.0044
     -1117.5344       -870.8204         56.0004         50.0004
 06  1 11 13 17 16.0000000  0  9G 3G29G18G27G19G16G22G21G15
 -23103927.12349 -17961181.70249  20654060.8804   20654064.2264   20654060.9874
      1473.3294       1148.0454         56.0004         50.0004
    -26762.31848    -16652.10347  25163151.2994   25163156.1314   25163152.6134
       224.8124        175.1754         42.0004         36.0004
 -17827566.85749 -13844346.47648  22026449.1024   22026451.1984   22026448.8864
       751.2084        585.3554         53.0004         46.0004
  -3077608.83748  -2350824.07747  24950931.6994   24950932.2574   24950930.8154
       894.7694        697.2224         43.0004         37.0004
  -8802333.83449  -6818152.80348  23465909.6824   23465911.0394   23465908.7034
      2979.3914       2321.5954         48.0004         43.0004
 -20152538.79749 -15640790.44149  21229051.4314   21229054.5684   21229051.7134
     -2099.1464      -1635.7004         55.0004         49.0004
 -10930450.36249  -8508663.28048  22538874.9944   22538877.5734   22538875.5404
      2814.8764       2193.3974         51.0004         45.0004
 -15085296.98249 -11501626.03848  22195247.7164   22195249.6074   22195247.9474
     -2538.9264      -1978.3994         52.0004         45.0004
 -25936956.50349 -20166289.11449  20403233.1134   20403235.7394   20403232.3654
     -1117.2144       -870.5604         56.0004         50.0004
 06  1 11 13 17 17.0000000  0  9G 3G29G18G27G19G16G22G21G15
 -23105400.41749 -17962329.72149  20653780.5024   20653783.8694   20653780.6624
      1472.4564       1147.3594         56.0004         50.0004
    -26987.04348    -16827.21147  25163108.8904   25163112.5854   25163109.8314
       223.6634        174.2794         42.0004         36.0004
 -17828317.87949 -13844931.68848  22026306.2914   22026308.7564   22026306.4494
       750.1224        584.5044         53.0004         46.0004
  -3078503.54447  -2351521.24947  24950761.9504   24950761.9194   24950760.3964
       893.8684        696.5194         41.0004         37.0004
  -8805313.38748  -6820474.53048  23465342.3304   23465343.7024   23465341.7154
      2978.7124       2321.0664         47.0004         43.0004
 -20150439.81249 -15639154.87149  21229450.8424   21229453.5984   21229451.1434
     -2099.9284      -1636.3064         54.0004         49.0004
 -10933265.35049  -8510856.77648  22538339.2404   22538341.3804   22538340.5944
      2814.1544       2192.8524         51.0004         44.0004
 -15082758.22749 -11499647.78848  22195730.8444   22195733.0034   22195730.8054
     -2539.4844      -1978.8134         52.0004         45.0004
 -25935839.16049 -20165418.45849  20403445.5654   20403448.4024   20403445.1624
     -1118.1814       -871.3134         56.0004         50.0004
 06  1 11 13 17 18.0000000  0  9G 3G29G18G27G19G16G22G21G15
 -23106873.37449 -17963477.48049  20653500.1634   20653503.7204   20653500.2514
      1472.2164       1147.1734         56.0004         50.0004
    -27211.25448    -17001.91947  25163066.4124   25163071.2304   25163066.6504
       223.1384        173.8774         43.0004         36.0004
 -17829068.34649 -13845516.46848  22026163.5334   22026165.5154   22026163.1274
       749.6194        584.1124         53.0004         46.0004
  -3079397.77047  -2352218.04747  24950591.7754   24950592.4644   24950591.0174
       893.8854        696.5374         41.0004         37.0004
  -8808292.88748  -6822796.22048  23464775.1934   23464776.8434   23464774.7304
      2978.9044       2321.2374         47.0004         43.0004
 -20148340.37549 -15637518.94549  21229850.2524   21229853.4514   21229850.8194
     -2100.2664      -1636.5824         54.0004         49.0004
 -10936080.02049  -8513050.02248  22537803.6144   22537805.6904   22537804.7974
      2813.9954       2192.7314         51.0004         44.0004
 -15080219.23349 -11497669.35548  22196214.1284   22196216.4884   22196214.8214
     -2539.6894      -1978.9874         52.0004         45.0004
 -25934721.36849 -20164547.44949  20403658.2054   20403661.3204   20403657.8414
     -1118.6054       -871.6414         56.0004         50.0004
 06  1 11 13 17 19.0000000  0  9G 3G29G18G27G19G16G22G21G15
 -23108345.76749 -17964624.79849  20653220.0444   20653223.6354   20653220.1314
      1472.1514       1147.1314         56.0004         50.0004
    -27434.71648    -17176.04547  25163024.0294   25163028.2384   25163024.7264
       222.8524        173.6584         42.0004         36.0004
 -17829818.02849 -13846100.63248  22026020.8904   22026022.7774   22026020.8864
       749.3744        583.9384         53.0004         46.0004
  -3080291.30047  -2352914.30147  24950421.5274   24950422.6624   24950420.2704
       893.7734        696.4524         40.0004         37.0004
  -8811272.11248  -6825117.69548  23464208.1414   23464210.1764   23464208.2684
      2978.9864       2321.2794         47.0004         43.0004
 -20146240.24949 -15635882.48449  21230249.9004   21230253.1204   21230250.4794
     -2100.3544      -1636.6314         55.0004         49.0004
 -10938894.14249  -8515242.84448  22537268.1724   22537270.5994   22537268.9524
      2813.9124       2192.6434         51.0004         45.0004
 -15077679.76649 -11495690.54248  22196697.2834   22196699.8144   22196697.4734
     -2539.6564      -1978.9504         52.0004         45.0004
 -25933602.90249 -20163675.91849  20403870.9164   20403873.9494   20403870.6664
     -1118.8404       -871.8284         56.0004         50.0004
 06  1 11 13 17 20.0000000  0  9G 3G29G18G27G19G16G22G21G15
 -23109817.92049 -17965771.93249  20652939.9384   20652943.2864   20652940.0364
      1472.2524       1147.2184         56.0004         50.0004
    -27657.76248    -17349.84747  25162981.7044   25162985.7214   25162983.1284
       222.9364        173.7114         43.0004         36.0004
 -17830567.25249 -13846684.44248  22025878.3034   22025880.3874   22025878.0734
       749.1154        583.7284         53.0004         46.0004
  -3081184.48747  -2353610.29047  24950251.0714   24950252.3824   24950249.8014
       893.5944        696.3054         41.0004         37.0004
  -8814251.40448  -6827439.22248  23463640.9864   23463643.2484   23463641.1454
      2979.5104       2321.6864         47.0004         42.0004
 -20144139.76349 -15634245.74249  21230649.6244   21230652.7614   21230650.3114
     -2100.5524      -1636.7844         55.0004         49.0004
 -10941708.05149  -8517435.50048  22536732.7514   22536734.8184   22536733.7234
      2813.9054       2192.6714         51.0004         45.0004
 -15075140.16949 -11493711.63648  22197180.5334   22197183.0924   22197180.8794
     -2539.5934      -1978.8984         52.0004         45.0004
 -25932484.09549 -20162804.12249  20404083.8234   20404087.1734   20404083.3694
     -1118.8374       -871.8184         56.0004         50.0004
 06  1 11 13 17 21.0000000  0  9G 3G29G18G27G19G16G22G21G15
 -23111289.57449 -17966918.67449  20652659.9764   20652663.3264   20652660.2454
      1471.1334       1146.3294         56.0004         50.0004
    -27880.13748    -17523.12447  25162939.6104   25162942.5524   25162941.5754
       222.0334        173.0074         42.0004         36.0004
 -17831315.75049 -13847267.68448  22025735.7844   22025738.2324   22025735.2794
       747.9004        582.7624         53.0004         46.0004
  -3082077.03547  -2354305.78347  24950080.8204   24950082.5284   24950079.7024
       892.1784        695.1964         40.0004         37.0004
  -8817230.47448  -6829760.57248  23463073.9954   23463075.7094   23463074.8864
      2978.7124       2321.0594         47.0004         42.0004
 -20142038.66949 -15632608.52449  21231049.5204   21231052.5864   21231049.6214
     -2101.5844      -1637.6054         55.0004         49.0004
 -10944521.47849  -8519627.78148  22536197.4224   22536200.0814   22536198.6014
      2813.0244       2191.9674         51.0004         45.0004
 -15072600.18149 -11491732.42748  22197663.9484   22197666.2434   22197663.5694
     -2540.2184      -1979.3784         52.0004         45.0004
 -25931364.67349 -20161931.84449  20404296.7424   20404299.9364   20404296.6394
     -1119.9364       -872.6834         56.0004         50.0004
 06  1 11 13 17 22.0000000  0  9G 3G29G18G27G19G16G22G21G15
 -23112760.83949 -17968065.11549  20652380.0134   20652383.4104   20652380.0414
      1471.8554       1146.9144         56.0004         50.0004
    -28101.91848    -17695.93947  25162897.6644   25162900.8214   25162899.0374
       222.1744        173.1174         43.0004         36.0004
 -17832063.64049 -13847850.45848  22025593.3954   22025595.5284   22025593.1594
       748.2894        583.1024         53.0004         46.0004
  -3082969.04047  -2355000.85347  24949910.9924   24949913.3054   24949909.3704
       892.7604        695.6584         41.0004         37.0004
  -8820209.44148  -6832081.84348  23462507.0694   23462508.6664   23462507.0944
      2979.6654       2321.8184         47.0004         42.0004
 -20139937.06749 -15630970.91249  21231449.5444   21231452.4554   21231450.1844
     -2101.1264      -1637.2374         55.0004         49.0004
 -10947334.53949  -8521819.77748  22535662.2184   22535664.3784   22535663.0924
      2813.7654       2192.5564         51.0004         45.0004
 -15070059.90349 -11489752.99548  22198147.3394   22198149.4924   22198147.7794
     -2539.6604      -1978.9424         52.0004         45.0004
 -25930244.76049 -20161059.18549  20404509.7924   20404513.1964   20404509.7404
     -1119.3694       -872.2284         56.0004         50.0004
 06  1 11 13 17 23.0000000  0  9G 3G29G18G27G19G16G22G21G15
 -23114231.65749 -17969211.20649  20652100.1874   20652103.6284   20652100.1644
      1470.2524       1145.6434         56.0004         50.0004
    -28323.09548    -17868.28247  25162855.4454   25162859.1844   25162856.8794
       220.5704        171.8734         43.0004         36.0004
 -17832810.85649 -13848432.70248  22025451.1124   22025453.4714   22025450.7304
       746.4714        581.6484         53.0004         46.0004
  -3083860.47648  -2355695.47647  24949741.1624   24949744.4834   24949740.7574
       890.8034        694.1334         42.0004         37.0004
  -8823188.24948  -6834402.98948  23461940.0434   23461941.8614   23461940.4514
      2978.1124       2320.5944         47.0004         42.0004
 -20137834.90549 -15629332.86449  21231849.5914   21231852.4964   21231849.7854
     -2102.6354      -1638.4204         55.0004         49.0004
 -10950147.17349  -8524011.44248  22535127.1114   22535129.3974   22535127.4254
      2812.1634       2191.3014         51.0004         45.0004
 -15067519.28449 -11487773.29248  22198630.8174   22198633.1514   22198630.8294
     -2540.9734      -1979.9864         52.0004         45.0004
 -25929124.28149 -20160186.08449  20404723.0164   20404726.3794   20404722.6614
     -1121.0984       -873.5854         56.0004         50.0004
 06  1 11 13 17 24.0000000  0  9G 3G29G18G27G19G16G22G21G15
 -23115702.10549 -17970357.01049  20651820.4264   20651823.8484   20651820.4484
      1469.7094       1145.2164         56.0004         50.0004
    -28543.68548    -18040.17147  25162813.5924   25162817.1884   25162813.9754
       219.3534        170.9284         42.0004         36.0004
 -17833557.47449 -13849014.48148  22025309.0694   22025310.6344   22025309.2254
       745.8254        581.1524         53.0004         46.0004
  -3084751.48648  -2356389.77247  24949571.4924   24949574.9274   24949571.8594
       891.3464        694.5574         42.0004         37.0004
  -8826166.99048  -6836724.08448  23461373.2514   23461374.7954   23461372.8634
      2978.0954       2320.5844         47.0004         42.0004
 -20135732.23449 -15627694.42049  21232249.7634   21232252.5684   21232249.9224
     -2103.4814      -1639.0844         55.0004         49.0004
 -10952959.45649  -8526202.83448  22534591.9674   22534594.7924   22534592.6904
      2811.6384       2190.8764         51.0004         45.0004
 -15064978.37949 -11485793.36948  22199114.3134   22199116.7654   22199114.5134
     -2541.6724      -1980.5144         52.0004         45.0004
 -25928003.33149 -20159312.61849  20404936.3094   20404939.7034   20404936.2884
     -1121.7984       -874.1414         56.0004         50.0004
 06  1 11 13 17 25.0000000  0  9G 3G29G18G27G19G16G22G21G15
 -23117172.19549 -17971502.53349  20651540.7284   20651543.7264   20651540.4314
      1470.2704       1145.6584         56.0004         50.0004
    -28763.78648    -18211.67947  25162771.4554   25162775.4714   25162769.3784
       220.3514        171.7054         42.0004         36.0004
 -17834303.51949 -13849595.81548  22025167.1784   22025169.1024   22025167.1074
       746.1394        581.3994         53.0004         46.0004
  -3085641.89148  -2357083.59447  24949401.7744   24949405.9684   24949401.7124
       890.4204        693.8354         42.0004         37.0004
  -8829145.66348  -6839045.13048  23460806.6704   23460808.8774   23460806.8924
      2979.0674       2321.3484         47.0004         42.0004
 -20133629.11049 -15626055.62349  21232649.9924   21232653.2284   21232650.2274
     -2103.0834      -1638.7664         55.0004         49.0004
 -10955771.40449  -8528393.96148  22534056.9424   22534059.7934   22534057.3184
      2812.1584       2191.2894         51.0004         44.0004
 -15062437.24449 -11483813.26248  22199597.9414   22199600.1664   22199597.7154
     -2541.1144      -1980.1094         51.0004         45.0004
 -25926881.91049 -20158438.78249  20405149.6414   20405153.3084   20405149.5394
     -1121.3114       -873.7524         55.0004         50.0004
 06  1 11 13 17 26.0000000  0  9G 3G29G18G27G19G16G22G21G15
 -23118641.72749 -17972647.62349  20651261.1054   20651264.0654   20651261.0104
      1469.2554       1144.8684         56.0004         50.0004
    -28983.11748    -18382.58447  25162729.5194   25162734.2994   25162727.8744
       218.9284        170.5914         42.0004         36.0004
 -17835048.77949 -13850176.53948  22025025.3644   22025027.4554   22025024.8174
       744.7774        580.3314         53.0004         46.0004
  -3086531.62748  -2357776.89347  24949232.1284   24949236.4904   24949232.9064
       889.7614        693.3294         42.0004         37.0004
  -8832124.05048  -6841365.95348  23460239.9614   23460240.8354   23460240.2294
      2978.2154       2320.6834         47.0004         42.0004
 -20131525.29949 -15624416.29249  21233050.3834   21233053.1804   21233050.5924
     -2104.2534      -1639.6784         55.0004         49.0004
 -10958582.80749  -8530584.66248  22533521.9324   22533524.0324   22533522.9024
      2811.1684       2190.5094         51.0004         45.0004
 -15059895.65049 -11481832.79548  22200081.6364   22200083.7734   22200081.3054
     -2541.9124      -1980.7024         51.0004         45.0004
 -25925759.82149 -20157564.43049  20405363.1464   20405366.6944   20405363.2324
     -1122.4814       -874.6624         56.0004         50.0004
 06  1 11 13 17 27.0000000  0  9G 3G29G18G27G19G16G22G21G15
 -23120110.91649 -17973792.44649  20650981.5744   20650984.8744   20650981.3934
      1468.8134       1144.5214         56.0004         50.0004
    -29201.93548    -18553.09047  25162687.6054   25162692.9124   25162686.5514
       218.3294        170.1164         42.0004         36.0004
 -17835793.47549 -13850756.82248  22024883.5784   22024885.8034   22024883.5404
       744.2354        579.9224         53.0004         46.0004
  -3087420.91147  -2358469.84047  24949062.8794   24949067.4974   24949064.6974
       889.3104        692.9664         40.0004         37.0004
  -8835102.39948  -6843686.74048  23459673.4224   23459675.0194   23459673.2814
      2978.0164       2320.5164         47.0004         42.0004
 -20129421.02949 -15622776.60349  21233450.8034   21233453.1884   21233450.9304
     -2104.8074      -1640.1114         55.0004         49.0004
 -10961393.89949  -8532775.12448  22532986.8714   22532988.5324   22532987.2264
      2810.6764       2190.1344         51.0004         45.0004
 -15057353.82549 -11479852.15448  22200565.3404   22200567.2964   22200565.2294
     -2542.1054      -1980.8644         52.0004         45.0004
 -25924637.28549 -20156689.72649  20405576.7054   20405580.0914   20405576.5944
     -1122.8884       -874.9824         55.0004         50.0004
 06  1 11 13 17 28.0000000  0  9G 3G29G18G27G19G16G22G21G15
 -23121579.73349 -17974936.97949  20650702.1104   20650705.1814   20650701.8884
      1468.0844       1143.9554         56.0004         50.0004
    -29420.19848    -18723.16147  25162645.8464   25162651.1044   25162645.6764
       217.3674        169.3694         42.0004         36.0004
 -17836537.57349 -13851336.63848  22024741.8834   22024744.4984   22024741.2744
       743.2534        579.1594         53.0004         46.0004
  -3088309.70548  -2359162.40847  24948893.7654   24948898.3104   24948894.6234
       887.8494        691.8184         42.0004         37.0004
  -8838080.66249  -6846007.46348  23459106.7144   23459107.9874   23459106.2824
      2977.7754       2320.3484         48.0004         42.0004
 -20127316.26749 -15621136.53049  21233851.2814   21233854.1684   21233851.5574
     -2105.5124      -1640.6704         55.0004         49.0004
 -10964204.63949  -8534965.31148  22532451.9034   22532453.9824   22532452.2014
      2810.0374       2189.6464         51.0004         45.0004
 -15054811.73549 -11477871.30648  22201049.0384   22201051.5904   22201049.0014
     -2542.6834      -1981.3134         52.0004         45.0004
 -25923514.26649 -20155814.64649  20405790.3764   20405794.1594   20405790.4364
     -1123.8544       -875.7384         56.0004         50.0004
 06  1 11 13 17 29.0000000  0  9G 3G29G18G27G19G16G22G21G15
 -23123048.14549 -17976081.19649  20650422.6574   20650425.8454   20650422.3834
      1468.1224       1143.9894         56.0004         50.0004
    -29637.87748    -18892.78047  25162604.3974   25162609.0944   25162604.0264
       217.3624        169.3584         42.0004         36.0004
 -17837281.04149 -13851915.96248  22024600.3194   22024602.5904   22024600.4494
       742.9714        578.9314         53.0004         46.0004
  -3089197.95247  -2359854.54847  24948724.8624   24948729.6404   24948725.4324
       888.3214        692.1964         40.0004         37.0004
  -8841058.79548  -6848328.08848  23458539.7694   23458541.3064   23458539.4324
      2978.0314       2320.5484         47.0004         42.0004
 -20125210.97349 -15619496.04049  21234252.0124   21234254.7444   21234252.0674
     -2105.7114      -1640.8334         55.0004         49.0004
 -10967014.99349  -8537155.19748  22531917.0144   22531919.7804   22531917.3394
      2810.0884       2189.6724         51.0004         45.0004
 -15052269.32149 -11475890.20948  22201532.8674   22201534.6574   22201532.1584
     -2542.8454      -1981.4494         51.0004         45.0004
 -25922390.73049 -20154939.16549  20406004.2174   20406007.4864   20406004.3084
     -1123.8494       -875.7284         56.0004         50.0004
 06  1 11 13 17 30.0000000  0  9G 3G29G18G27G19G16G22G21G15
 -23124516.07749 -17977225.03749  20650143.3424   20650146.7014   20650143.0434
      1467.6144       1143.5954         56.0004         50.0004
    -29854.89048    -19061.87747  25162563.1444   25162568.2894   25162562.1254
       216.8434        168.9614         42.0004         36.0004
 -17838023.80349 -13852494.73648  22024458.8674   22024461.0694   22024458.8694
       742.3484        578.4494         53.0004         46.0004
  -3090085.59248  -2360546.21447  24948556.0554   24948560.9894   24948556.6104
       886.9784        691.1534         42.0004         37.0004
  -8844036.74549  -6850648.56348  23457973.0064   23457974.6544   23457972.9834
      2977.6844       2320.2604         48.0004         42.0004
 -20123105.09049 -15617855.09349  21234652.8254   21234655.3514   21234653.0114
     -2106.1654      -1641.1704         55.0004         49.0004
 -10969824.88749  -8539344.72648  22531382.2894   22531385.0284   22531383.0904
      2809.5714       2189.2654         51.0004         45.0004
 -15049726.54849 -11473908.82548  22202016.7484   22202018.7164   22202017.0174
     -2543.0114      -1981.6014         52.0004         45.0004
 -25921266.61049 -20154063.22849  20406218.2194   20406221.7444   20406218.2234
     -1124.3784       -876.1394         56.0004         50.0004
 06  1 11 13 17 31.0000000  0  9G 3G29G18G27G19G16G22G21G15
 -23125983.67049 -17978368.61749  20649864.0234   20649867.2514   20649864.1184
      1467.7204       1143.6754         56.0004         50.0004
    -30071.37248    -19230.56147  25162521.9344   25162526.0024   25162521.5064
       216.6154        168.7934         42.0004         36.0004
 -17838766.01349 -13853073.08348  22024317.6544   22024319.6654   22024317.9404
       742.3544        578.4604         53.0004         46.0004
  -3090972.76247  -2361237.51247  24948386.9524   24948392.3544   24948387.7624
       887.2804        691.3884         40.0004         37.0004
  -8847014.65348  -6852969.00848  23457406.1884   23457408.1984   23457406.6334
      2978.2474       2320.7114         47.0004         42.0004
 -20120998.75349 -15616213.79349  21235053.7534   21235056.1564   21235053.8674
     -2106.2534      -1641.2404         55.0004         49.0004
 -10972634.46749  -8541534.00048  22530847.6754   22530850.0144   22530848.3864
      2809.7064       2189.3884         51.0004         45.0004
 -15047183.54449 -11471927.26348  22202500.7034   22202503.1674   22202499.9964
     -2542.6494      -1981.2874         51.0004         45.0004
 -25920142.04349 -20153186.94149  20406432.3554   20406435.5494   20406432.3604
     -1124.4654       -876.2064         56.0004         50.0004
 06  1 11 13 17 32.0000000  0  9G 3G29G18G27G19G16G22G21G15
 -23127450.81349 -17979511.84649  20649584.8384   20649587.7994   20649584.7014
      1466.8654       1143.0094         56.0004         50.0004
    -30287.24147    -19398.76947  25162480.9194   25162485.5804   25162479.7964
       215.6884        168.0794         41.0004         36.0004
 -17839507.54149 -13853650.89748  22024176.6594   22024179.1214   22024176.7094
       741.1144        577.4984         53.0004         46.0004
  -3091859.37848  -2361928.38047  24948218.0574   24948222.5204   24948218.7534
       886.7314        690.9674         42.0004         37.0004
  -8849992.39148  -6855289.32148  23456839.4624   23456840.8894   23456839.4094
      2977.5464       2320.1574         47.0004         42.0004
 -20118891.84149 -15614572.04349  21235454.7194   21235457.1974   21235454.5244
     -2107.2974      -1642.0444         55.0004         49.0004
 -10975443.61549  -8543722.94748  22530313.1804   22530315.9114   22530313.5764
      2808.8514       2188.7154         51.0004         45.0004
 -15044640.17549 -11469945.41348  22202984.6984   22202987.0724   22202984.1324
     -2543.5514      -1981.9984         52.0004         45.0004
 -25919016.91149 -20152310.21549  20406646.6634   20406649.8754   20406646.4744
     -1125.3924       -876.9254         56.0004         50.0004
 06  1 11 13 17 33.0000000  0  9G 3G29G18G27G19G16G22G21G15
 -23128917.48849 -17980654.71149  20649305.6874   20649308.8344   20649305.7324
      1466.8764       1143.0344         56.0004         50.0004
    -30502.45847    -19566.47047  25162439.8454   25162444.4874   25162438.2984
       215.3514        167.8054         41.0004         36.0004
 -17840248.39049 -13854228.18048  22024035.7694   22024037.8594   22024035.9864
       741.1154        577.5144         53.0004         46.0004
  -3092745.31648  -2362618.72147  24948049.1334   24948053.4704   24948050.9144
       885.2434        689.7974         42.0004         37.0004
  -8852969.96848  -6857609.50648  23456272.8164   23456275.7694   23456273.8934
      2977.9744       2320.5104         47.0004         42.0004
 -20116784.35849 -15612929.84849  21235855.7154   21235858.6424   21235855.9124
     -2107.2834      -1642.0314         55.0004         49.0004
 -10978252.31449  -8545911.54348  22529778.7264   22529781.6554   22529779.1914
      2808.9834       2188.8364         51.0004         45.0004
 -15042096.45349 -11467963.29448  22203468.7404   22203471.3934   22203468.4514
     -2543.4404      -1981.8924         52.0004         45.0004
 -25917891.20249 -20151433.03949  20406860.9874   20406863.7944   20406860.6554
     -1125.4804       -876.9884         56.0004         50.0004
 06  1 11 13 17 34.0000000  0  9G 3G29G18G27G19G16G22G21G15
 -23130383.84549 -17981797.32549  20649026.6044   20649029.9404   20649026.9014
      1466.1784       1142.4794         56.0004         50.0004
    -30717.18947    -19733.79447  25162398.6264   25162402.5554   25162397.4724
       214.5414        167.1724         41.0004         36.0004
 -17840988.69249 -13854805.04148  22023894.9824   22023897.2874   22023894.8474
       739.9974        576.6124         53.0004         46.0004
  -3093630.92347  -2363308.80647  24947880.3084   24947884.2784   24947881.9984
       886.4824        690.7664         40.0004         37.0004
  -8855947.50348  -6859929.66348  23455706.3464   23455708.1344   23455705.8914
      2977.5514       2320.1654         47.0004         42.0004
 -20114676.43449 -15611287.31349  21236256.8334   21236259.6044   21236256.7374
     -2108.0974      -1642.6694         55.0004         49.0004
 -10981060.71949  -8548099.90448  22529244.3954   22529246.3594   22529245.4944
      2808.1454       2188.1554         51.0004         45.0004
 -15039552.52849 -11465981.01648  22203952.7924   22203954.8084   22203952.1094
     -2544.0934      -1982.4084         51.0004         45.0004
 -25916765.07349 -20150555.53649  20407075.3084   20407078.3494   20407075.0444
     -1126.4744       -877.7704         56.0004         50.0004
 06  1 11 13 17 35.0000000  0  9G 3G29G18G27G19G16G22G21G15
 -23131849.74449 -17982939.58549  20648747.6184   20648750.8604   20648747.6384
      1466.0124       1142.3324         56.0004         50.0004
    -30931.26247    -19900.60547  25162357.5974   25162360.8254   25162356.8674
       213.9274        166.6934         41.0004         36.0004
 -17841728.30849 -13855381.36148  22023754.3504   22023756.1584   22023754.0324
       739.5734        576.2784         53.0004         46.0004
  -3094515.86047  -2363998.36747  24947711.8304   24947715.8324   24947712.9434
       884.4714        689.1984         40.0004         37.0004
  -8858924.85749  -6862249.67648  23455139.8464   23455141.8084   23455139.9374
      2977.7094       2320.2704         48.0004         42.0004
 -20112567.93049 -15609644.32149  21236658.0354   21236660.5594   21236658.1334
     -2108.5074      -1643.0054         55.0004         49.0004
 -10983868.67749  -8550287.92448  22528710.1344   22528712.1604   22528709.6834
      2808.0754       2188.1044         51.0004         45.0004
 -15037008.22749 -11463998.44548  22204436.9254   22204438.4254   22204437.0204
     -2544.1534      -1982.4954         51.0004         45.0004
 -25915638.37849 -20149677.59249  20407289.7164   20407292.6884   20407289.1354
     -1126.7274       -877.9854         56.0004         50.0004
 06  1 11 13 17 36.0000000  0  9G 3G29G18G27G19G16G22G21G15
 -23133315.18849 -17984081.48749  20648468.7464   20648472.1144   20648468.9354
      1465.3144       1141.7984         56.0004         50.0004
    -31144.70847    -20066.92846  25162316.4814   25162320.0894   25162316.4094
       213.3254        166.2144         41.0004         35.0004
 -17842467.25249 -13855957.16048  22023613.8524   22023615.8314   22023613.4364
       738.7874        575.6734         53.0004         46.0004
  -3095400.23347  -2364687.48547  24947542.7664   24947547.1164   24947544.2204
       883.9274        688.7674         40.0004         37.0004
  -8861902.05948  -6864569.56948  23454573.4744   23454574.8734   23454573.7234
      2977.2944       2319.9674         47.0004         43.0004
 -20110458.86349 -15608000.89449  21237059.3394   21237062.0764   21237059.4204
     -2109.3884      -1643.6824         54.0004         49.0004
 -10986676.21549  -8552475.61548  22528175.9684   22528177.3354   22528176.5944
      2807.3564       2187.5474         51.0004         45.0004
 -15034463.60949 -11462015.62348  22204921.2234   22204922.5724   22204920.9954
     -2544.4434      -1982.6814         51.0004         45.0004
 -25914511.12249 -20148799.20949  20407504.2324   20407506.8904   20407503.7304
     -1127.4304       -878.5204         56.0004         50.0004
 06  1 11 13 17 37.0000000  0  9G 3G29G18G27G19G16G22G21G15
 -23134780.29149 -17985223.12749  20648189.9494   20648193.1064   20648189.8694
      1464.9354       1141.4964         56.0004         50.0004
    -31357.63547    -20232.84646  25162276.0774   25162280.7604   25162278.1894
       212.3464        165.4594         41.0004         35.0004
 -17843205.62949 -13856532.51948  22023473.4194   22023475.2224   22023473.0624
       738.1994        575.2104         53.0004         46.0004
  -3096284.14247  -2365376.24547  24947374.7154   24947378.9784   24947376.3574
       883.2694        688.2614         41.0004         37.0004
  -8864879.21649  -6866889.43648  23454007.1234   23454008.7494   23454006.7074
      2977.0864       2319.7994         48.0004         43.0004
 -20108349.34149 -15606357.11149  21237460.7504   21237463.0434   21237460.7454
     -2109.6434      -1643.8824         55.0004         49.0004
 -10989483.43049  -8554663.05748  22527641.8094   22527643.8254   22527642.3144
      2807.0674       2187.3314         51.0004         45.0004
 -15031918.72849 -11460032.59948  22205405.4964   22205407.0914   22205404.5974
     -2544.9084      -1983.0454         51.0004         45.0004
 -25913383.41149 -20147920.47449  20407718.9064   20407721.5574   20407718.3754
     -1127.8604       -878.8544         56.0004         50.0004
 06  1 11 13 17 38.0000000  0  9G 3G29G18G27G19G16G22G21G15
 -23136244.96549 -17986364.43149  20647911.2284   20647914.5904   20647911.4674
      1464.8724       1141.4544         56.0004         50.0004
    -31569.96447    -20398.30046  25162235.6744   25162239.5964   25162237.5434
       212.7374        165.7804         41.0004         35.0004
 -17843943.35649 -13857107.36848  22023333.0624   22023334.8854   22023332.7604
       737.8714        574.9604         53.0004         46.0004
  -3097167.46847  -2366064.54747  24947206.6444   24947211.2394   24947208.0284
       883.7004        688.5984         41.0004         37.0004
  -8867856.22249  -6869209.17548  23453440.7154   23453442.1074   23453441.4354
      2977.3674       2320.0214         48.0004         43.0004
 -20106239.26449 -15604712.89749  21237862.3574   21237865.1224   21237862.3334
     -2110.0394      -1644.1824         55.0004         49.0004
 -10992290.24349  -8556850.18048  22527107.7954   22527109.9094   22527108.2324
      2807.0674       2187.3304         51.0004         45.0004
 -15029373.53149 -11458049.32948  22205889.8564   22205891.1944   22205889.3634
     -2544.9834      -1983.0944         52.0004         45.0004
 -25912255.16849 -20147041.32249  20407933.6344   20407936.5084   20407933.2054
     -1128.0614       -879.0114         56.0004         50.0004
 06  1 11 13 17 39.0000000  0  9G 3G29G18G27G19G16G22G21G15
 -23137709.25549 -17987505.43649  20647632.5904   20647636.0424   20647632.7814
      1463.7364       1140.5644         56.0004         50.0004
    -31781.70247    -20563.29246  25162195.8104   25162200.8564   25162197.1354
       211.2194        164.5894         41.0004         35.0004
 -17844680.46449 -13857681.73348  22023192.8584   22023194.2394   22023192.0914
       736.5104        573.8784         53.0004         46.0004
  -3098050.30747  -2366752.47247  24947038.7784   24947043.4314   24947040.2584
       882.1194        687.3654         40.0004         37.0004
  -8870833.13449  -6871528.84548  23452874.5664   23452875.7604   23452874.5104
      2976.6164       2319.4344         48.0004         43.0004
 -20104128.71249 -15603068.31049  21238264.0194   21238266.5274   21238263.8724
     -2111.1274      -1645.0444         55.0004         49.0004
 -10995096.68949  -8559037.02248  22526573.8674   22526575.6224   22526574.2594
      2806.0234       2186.5054         51.0004         45.0004
 -15026828.06749 -11456065.85348  22206374.2334   22206376.0704   22206374.2494
     -2545.7794      -1983.7264         51.0004         45.0004
 -25911126.43249 -20146161.78849  20408148.4664   20408151.1504   20408147.9184
     -1129.2894       -879.9734         56.0004         50.0004
 06  1 11 13 17 40.0000000  0  9G 3G29G18G27G19G16G22G21G15
 -23139173.05949 -17988646.06449  20647354.0724   20647357.1084   20647354.2754
      1463.9324       1140.7384         56.0004         50.0004
    -31992.78147    -20727.76846  25162155.6494   25162159.6804   25162157.0084
       210.9524        164.3804         41.0004         35.0004
 -17845416.86849 -13858255.55448  22023052.7134   22023054.7394   22023052.2344
       736.4464        573.8634         53.0004         46.0004
  -3098932.50947  -2367439.90047  24946871.2344   24946874.9174   24946872.1214
       882.4034        687.5884         41.0004         37.0004
  -8873809.85549  -6873848.37148  23452308.2274   23452309.5854   23452307.0804
      2977.1854       2319.8894         48.0004         43.0004
 -20102017.54849 -15601423.24749  21238665.7994   21238668.2214   21238665.8994
     -2111.0624      -1644.9744         54.0004         49.0004
 -10997902.67449  -8561223.50648  22526039.9184   22526041.9924   22526039.9704
      2806.1544       2186.6204         51.0004         45.0004
 -15024282.21149 -11454082.07148  22206858.6594   22206860.6704   22206858.6874
     -2545.6494      -1983.6144         51.0004         45.0004
 -25909997.10149 -20145281.78949  20408363.3164   20408366.2534   20408362.6804
     -1129.1674       -879.8614         56.0004         50.0004
 06  1 11 13 17 41.0000000  0  9G 3G29G18G27G19G16G22G21G15
 -23140636.45049 -17989786.37049  20647075.6194   20647078.5244   20647075.7384
      1462.3884       1139.5224         56.0004         50.0004
    -32203.26947    -20891.78246  25162115.6514   25162119.1094   25162116.5174
       209.3384        163.1174         41.0004         35.0004
 -17846152.63249 -13858828.88048  22022912.7414   22022914.5934   22022911.9954
       734.6294        572.4354         53.0004         46.0004
  -3099814.17047  -2368126.90647  24946703.4854   24946707.2114   24946703.6904
       880.2704        685.9264         40.0004         37.0004
  -8876786.44049  -6876167.78848  23451741.9864   23451743.2504   23451742.4324
      2975.6704       2318.6994         49.0004         43.0004
 -20099905.85949 -15599777.77349  21239067.6634   21239070.2254   21239067.4254
     -2112.7684      -1646.3134         55.0004         49.0004
 -11000708.26449  -8563409.67448  22525505.9444   22525508.5294   22525505.6574
      2804.6394       2185.4264         51.0004         45.0004
 -15021736.05549 -11452098.05148  22207343.2014   22207345.4944   22207343.0584
     -2547.1664      -1984.8124         51.0004         45.0004
 -25908867.25149 -20144401.38549  20408578.2474   20408580.9074   20408577.7414
     -1130.9134       -881.2324         56.0004         50.0004
 06  1 11 13 17 42.0000000  0  9G 3G29G18G27G19G16G22G21G15
 -23142099.55749 -17990926.45349  20646797.1844   20646800.2804   20646797.2894
      1463.0814       1140.0714         56.0004         50.0004
    -32413.27747    -21055.42846  25162075.3944   25162079.5694   25162076.4564
       209.7904        163.4774         41.0004         35.0004
 -17846887.89849 -13859401.81648  22022772.8574   22022774.0624   22022772.8124
       735.2644        572.9454         53.0004         46.0004
  -3100695.42347  -2368813.59347  24946535.5804   24946539.9754   24946535.7444
       880.2214        685.8914         40.0004         37.0004
  -8879763.03849  -6878487.21848  23451175.7054   23451176.5644   23451175.7864
      2976.6204       2319.4444         48.0004         43.0004
 -20097793.76549 -15598131.98649  21239469.5464   21239472.1484   21239469.5074
     -2112.2654      -1645.9054         55.0004         49.0004
 -11003513.58949  -8565595.64048  22524972.0164   22524973.9234   22524972.9534
      2805.2904       2185.9364         51.0004         45.0004
 -15019189.70849 -11450113.88748  22207827.7574   22207829.5784   22207827.5714
     -2546.4084      -1984.2094         51.0004         45.0004
 -25907737.00249 -20143520.67149  20408793.2324   20408796.2344   20408792.6684
     -1130.4124       -880.8334         56.0004         50.0004
 06  1 11 13 17 43.0000000  0  9G 3G29G18G27G19G16G22G21G15
 -23143562.10049 -17992066.09449  20646518.8574   20646521.8194   20646519.1814
      1462.2994       1139.4494         56.0004         50.0004
    -32622.56047    -21218.50546  25162035.2404   25162039.9754   25162035.8244
       208.8464        162.7244         41.0004         35.0004
 -17847622.36749 -13859974.12348  22022633.0184   22022635.3684   22022632.3004
       734.1634        572.0614         53.0004         46.0004
  -3101575.97347  -2369499.73747  24946367.7164   24946372.6204   24946367.5354
       879.5494        685.3544         41.0004         37.0004
  -8882739.36549  -6880806.43148  23450609.2954   23450610.6064   23450609.0054
      2976.3054       2319.1954         49.0004         43.0004
 -20095681.00049 -15596485.67349  21239871.5124   21239874.2444   21239871.4274
     -2113.0894      -1646.5674         55.0004         49.0004
 -11006318.37349  -8567781.18248  22524438.1744   22524441.0484   22524438.9254
      2804.5544       2185.3664         51.0004         45.0004
 -15016642.90949 -11448129.37248  22208312.3434   22208313.9534   22208312.3074
     -2546.9844      -1984.6654         51.0004         45.0004
 -25906606.08749 -20142639.43949  20409008.3814   20409011.2484   20409007.9364
     -1131.2144       -881.4684         56.0004         50.0004
 06  1 11 13 17 44.0000000  0  9G 3G29G18G27G19G16G22G21G15
 -23145024.27349 -17993205.45149  20646240.5364   20646243.7694   20646240.8154
      1461.2194       1138.6054         56.0004         50.0004
    -32831.29547    -21381.15246  25161995.4364   25162000.3054   25161995.8454
       207.7794        161.8964         41.0004         35.0004
 -17848356.25649 -13860545.98348  22022493.3254   22022495.3634   22022493.3454
       732.8494        571.0424         53.0004         46.0004
  -3102456.04447  -2370185.50447  24946200.3294   24946205.4124   24946201.0284
       879.0694        684.9794         39.0004         37.0004
  -8885715.60949  -6883125.58448  23450042.9614   23450043.7114   23450042.6404
      2975.3744       2318.4704         49.0004         43.0004
 -20093567.75249 -15594838.98949  21240273.4714   21240276.1634   21240273.5874
     -2114.2434      -1647.4654         55.0004         49.0004
 -11009122.80849  -8569966.45648  22523904.5284   22523906.6784   22523905.0304
      2803.3084       2184.3904         51.0004         45.0004
 -15014095.86249 -11446144.65948  22208796.9404   22208798.9824   22208796.1234
     -2548.0564      -1985.5024         51.0004         45.0004
 -25905474.70149 -20141757.84049  20409223.7624   20409226.6704   20409223.1194
     -1132.3774       -882.3724         56.0004         50.0004
 06  1 11 13 17 45.0000000  0  9G 3G29G18G27G19G16G22G21G15
 -23146486.07649 -17994344.51749  20645962.3734   20645965.5084   20645962.7794
      1461.5284       1138.8574         56.0004         50.0004
    -33039.45447    -21543.35246  25161956.1974   25161960.1454   25161956.6634
       207.9694        162.0464         41.0004         35.0004
 -17849089.53349 -13861117.36748  22022353.6484   22022355.7724   22022353.5374
       732.9994        571.1754         53.0004         46.0004
  -3103335.62448  -2370870.89047  24946032.9734   24946038.8674   24946033.8194
       879.8234        685.5774         42.0004         37.0004
  -8888691.76449  -6885444.66648  23449476.6974   23449477.2754   23449476.9674
      2975.9774       2318.9474         49.0004         43.0004
 -20091454.00749 -15593191.91649  21240675.5974   21240678.5534   21240676.0074
     -2114.0474      -1647.3104         55.0004         49.0004
 -11011926.89449  -8572151.45748  22523370.9184   22523372.8014   22523371.1274
      2803.8534       2184.8414         51.0004         45.0004
 -15011548.53649 -11444159.72248  22209281.6544   22209283.9264   22209282.2284
     -2547.5414      -1985.0794         51.0004         45.0004
 -25904342.82249 -20140875.85649  20409439.2074   20409441.9954   20409438.7844
     -1132.1724       -882.2094         56.0004         50.0004
 06  1 11 13 17 46.0000000  0  9G 3G29G18G27G19G16G22G21G15
 -23147947.43449 -17995483.23749  20645684.2784   20645687.2464   20645684.4724
      1460.9744       1138.4224         56.0004         50.0004
    -33246.98448    -21705.06346  25161917.2984   25161921.0384   25161917.3044
       206.7194        161.0774         43.0004         35.0004
 -17849822.15849 -13861688.24248  22022214.0584   22022216.2624   22022214.2294
       732.1904        570.5414         53.0004         46.0004
  -3104214.57147  -2371555.78147  24945866.0044   24945872.0684   24945866.8054
       878.4194        684.4734         40.0004         37.0004
  -8891667.77549  -6887763.63848  23448910.4984   23448910.8134   23448910.5484
      2975.9244       2318.8954         49.0004         43.0004
 -20089339.70249 -15591544.40849  21241077.8824   21241081.1094   21241078.1984
     -2114.8094      -1647.9004         55.0004         49.0004
 -11014730.54849  -8574336.12048  22522837.3534   22522839.3224   22522838.0224
      2803.3034       2184.4054         51.0004         45.0004
 -15009000.87649 -11442174.53948  22209766.3944   22209768.5274   22209766.2634
     -2547.9864      -1985.4324         52.0004         45.0004
 -25903210.40349 -20139993.45249  20409654.7044   20409657.5634   20409654.1014
     -1132.8044       -882.7014         56.0004         50.0004
 06  1 11 13 17 47.0000000  0  9G 3G29G18G27G19G16G22G21G15
 -23149408.38649 -17996621.64049  20645406.2744   20645409.3744   20645406.3374
      1460.3954       1137.9594         56.0004         50.0004
    -33453.96748    -21866.34946  25161878.3944   25161881.6324   25161877.9034
       206.3914        160.8304         42.0004         35.0004
 -17850554.15049 -13862258.62648  22022074.6794   22022076.9524   22022074.5184
       731.2624        569.7994         53.0004         46.0004
  -3105093.03847  -2372240.30047  24945699.0614   24945704.0754   24945699.3704
       878.1564        684.2714         39.0004         37.0004
  -8894643.65649  -6890082.50548  23448344.1754   23448344.8444   23448344.7324
      2975.5404       2318.5954         49.0004         43.0004
 -20087224.88349 -15589896.50049  21241480.3224   21241483.3674   21241480.5074
     -2115.4064      -1648.3844         55.0004         49.0004
 -11017533.82049  -8576520.48648  22522303.7744   22522306.3454   22522303.7064
      2802.7054       2183.8954         51.0004         45.0004
 -15006452.92249 -11440189.12348  22210251.3104   22210252.9554   22210250.8444
     -2548.3624      -1985.7474         51.0004         45.0004
 -25902077.46849 -20139110.64449  20409870.2004   20409873.2764   20409869.4444
     -1133.6274       -883.3554         56.0004         50.0004
 06  1 11 13 17 48.0000000  0  9G 3G29G18G27G19G16G22G21G15
 -23150868.90649 -17997759.70849  20645128.3584   20645131.6124   20645128.4784
      1459.7674       1137.4764         56.0004         50.0004
    -33660.32247    -22027.14046  25161839.5734   25161843.0384   25161839.4224
       205.2564        159.9334         41.0004         35.0004
 -17851285.50249 -13862828.50748  22021935.4304   22021937.2574   22021935.3924
       730.6894        569.3654         53.0004         46.0004
  -3105970.93047  -2372924.37247  24945532.5334   24945537.6174   24945532.4194
       876.4314        682.9374         40.0004         37.0004
  -8897619.41049  -6892401.27448  23447778.0224   23447778.6744   23447777.5464
      2975.3424       2318.4484         49.0004         43.0004
 -20085109.51949 -15588248.16349  21241882.9534   21241885.8634   21241883.1334
     -2116.1714      -1648.9704         55.0004         49.0004
 -11020336.68749  -8578704.53848  22521770.3534   22521773.1164   22521771.1654
      2802.2214       2183.5404         51.0004         45.0004
 -15003904.64949 -11438203.45748  22210736.2304   22210738.0394   22210736.0724
     -2548.8904      -1986.1644         52.0004         45.0004
 -25900943.99449 -20138227.41849  20410085.7684   20410089.0264   20410085.2964
     -1134.4204       -883.9684         56.0004         50.0004
 06  1 11 13 17 49.0000000  0  9G 3G29G18G27G19G16G22G21G15
 -23152329.04649 -17998897.47849  20644850.5314   20644853.7224   20644850.5494
      1459.2044       1137.0364         56.0004         50.0004
    -33866.11147    -22187.49446  25161800.4054   25161803.5414   25161799.9344
       204.8544        159.6244         41.0004         35.0004
 -17852016.23149 -13863397.90648  22021796.3684   22021798.5644   22021796.3544
       729.8604        568.7244         53.0004         46.0004
  -3106848.28348  -2373608.02547  24945365.9534   24945371.4814   24945365.9034
       875.8974        682.5134         42.0004         37.0004
  -8900595.06249  -6894719.96448  23447211.7704   23447211.6494   23447211.1344
      2975.0074       2318.1904         48.0004         43.0004
 -20082993.65549 -15586599.44049  21242285.7464   21242288.2394   21242285.6384
     -2116.8904      -1649.5354         55.0004         49.0004
 -11023139.18049  -8580888.30048  22521236.9704   22521239.4984   22521237.4154
      2801.6694       2183.1164         51.0004         45.0004
 -15001356.09349 -11436217.56248  22211221.2804   22211223.1354   22211221.0374
     -2549.3454      -1986.5014         52.0004         45.0004
 -25899810.03449 -20137343.81449  20410301.3704   20410304.6724   20410300.8954
     -1134.9514       -884.3874         56.0004         50.0004
 06  1 11 13 17 50.0000000  0  9G 3G29G18G27G19G16G22G21G15
 -23153788.74249 -18000034.90249  20644572.7564   20644575.9914   20644572.8524
      1459.6884       1137.4194         56.0004         50.0004
    -34071.29048    -22347.37346  25161761.3074   25161764.3664   25161761.3644
       205.1074        159.8254         42.0004         35.0004
 -17852746.29949 -13863966.79048  22021657.4484   22021659.8324   22021657.4114
       729.8964        568.7584         53.0004         46.0004
  -3107725.08848  -2374291.24647  24945199.0734   24945204.5434   24945199.0744
       876.2234        682.7734         42.0004         37.0004
  -8903570.55649  -6897038.53248  23446645.5604   23446646.7824   23446645.5114
      2975.5844       2318.6444         48.0004         43.0004
 -20080877.24249 -15584950.28549  21242688.6244   21242691.0114   21242688.4704
     -2116.5384      -1649.2584         55.0004         49.0004
 -11025941.25949  -8583071.73048  22520703.7714   22520706.3894   22520704.1294
      2802.0524       2183.4204         51.0004         45.0004
 -14998807.20449 -11434231.41548  22211706.4304   22211707.9274   22211706.0814
     -2548.8124      -1986.0914         52.0004         45.0004
 -25898675.52149 -20136459.77749  20410517.0924   20410520.6044   20410517.1204
     -1134.5484       -884.0624         55.0004         50.0004
 06  1 11 13 17 51.0000000  0  9G 3G29G18G27G19G16G22G21G15
 -23155248.07249 -18001172.04349  20644295.0884   20644298.3364   20644295.2444
      1459.4244       1137.2264         56.0004         50.0004
    -34275.91248    -22506.81747  25161722.2904   25161725.4534   25161722.2734
       204.6094        159.4214         42.0004         36.0004
 -17853475.77549 -13864535.21148  22021518.6264   22021521.1744   22021518.9074
       729.3654        568.3574         53.0004         46.0004
  -3108601.40147  -2374974.08647  24945032.5644   24945037.5434   24945032.7254
       875.7724        682.4204         41.0004         37.0004
  -8906545.99349  -6899357.05948  23446079.3044   23446080.0684   23446078.2544
      2975.5854       2318.6524         48.0004         43.0004
 -20078760.34749 -15583300.75849  21243091.5964   21243094.1944   21243091.2894
     -2116.8854      -1649.5094         55.0004         49.0004
 -11028742.98649  -8585254.89848  22520170.5884   22520173.2954   22520171.6734
      2801.8484       2183.2604         51.0004         45.0004
 -14996258.05749 -11432245.06748  22212191.6084   22212193.1574   22212191.3504
     -2549.0174      -1986.2414         52.0004         45.0004
 -25897540.53949 -20135575.37649  20410733.0264   20410736.6004   20410733.1104
     -1134.9364       -884.3554         55.0004         50.0004
 06  1 11 13 17 52.0000000  0  9G 3G29G18G27G19G16G22G21G15
 -23156706.96449 -18002308.84049  20644017.4844   20644020.7214   20644017.4214
      1458.2514       1136.2924         56.0004         50.0004
    -34479.91448    -22665.78147  25161683.3144   25161687.3454   25161683.4184
       203.1444        158.2904         42.0004         36.0004
 -17854204.57349 -13865103.10748  22021379.8844   22021382.0544   22021379.9384
       728.1444        567.3864         53.0004         46.0004
  -3109477.14047  -2375656.47747  24944865.9244   24944870.0524   24944865.1754
       874.5694        681.4794         41.0004         37.0004
  -8909521.25549  -6901675.44348  23445512.9804   23445513.1134   23445512.9924
      2974.7864       2318.0084         48.0004         43.0004
 -20076642.89149 -15581650.79249  21243494.5634   21243496.7164   21243494.2424
     -2118.1204      -1650.4824         55.0004         49.0004
 -11031544.28249  -8587437.72448  22519637.5584   22519640.0364   22519638.3504
      2800.6354       2182.3114         51.0004         45.0004
 -14993708.56349 -11430258.45148  22212676.8244   22212678.1714   22212677.4214
     -2550.0764      -1987.0734         52.0004         45.0004
 -25896404.99849 -20134690.53949  20410949.1144   20410952.5174   20410949.1774
     -1136.3014       -885.4374         56.0004         50.0004
 06  1 11 13 17 53.0000000  0  9G 3G29G18G27G19G16G22G21G15
 -23158165.41249 -18003445.29449  20643739.9124   20643742.9064   20643739.7054
      1458.2644       1136.3224         56.0004         50.0004
    -34683.29048    -22824.25547  25161644.5714   25161647.9454   25161643.3414
       203.3074        158.4094         42.0004         36.0004
 -17854932.70649 -13865670.48248  22021241.2934   22021243.1354   22021241.5114
       727.9614        567.2554         53.0004         46.0004
  -3110352.27248  -2376338.39747  24944699.0754   24944702.5164   24944697.6524
       875.0424        681.8484         42.0004         37.0004
  -8912496.38249  -6903993.72148  23444946.5774   23444947.8394   23444945.8564
      2975.2194       2318.3584         48.0004         43.0004
 -20074524.88249 -15580000.39549  21243897.5864   21243900.0474   21243897.3914
     -2118.1714      -1650.5214         55.0004         49.0004
 -11034345.16149  -8589620.22748  22519104.5604   22519107.0874   22519104.5394
      2800.7554       2182.4284         51.0004         45.0004
 -14991158.74049 -11428271.57648  22213162.1094   22213163.5624   22213161.7154
     -2549.8474      -1986.8724         51.0004         45.0004
 -25895268.91249 -20133805.27949  20411165.3014   20411168.8784   20411165.2504
     -1136.3004       -885.4134         56.0004         50.0004
 06  1 11 13 17 54.0000000  0  9G 3G29G18G27G19G16G22G21G15
 -23159623.43949 -18004581.41849  20643462.4684   20643465.5314   20643462.4454
      1458.1534       1136.2324         56.0004         50.0004
    -34886.05548    -22982.25347  25161605.7844   25161608.9304   25161605.2264
       202.9874        158.1874         42.0004         36.0004
 -17855660.18849 -13866237.35248  22021102.8554   22021105.6824   22021103.4174
       727.4934        566.8804         53.0004         46.0004
  -3111226.91548  -2377019.93647  24944532.4434   24944535.9334   24944531.7924
       874.8004        681.6604         42.0004         37.0004
  -8915471.35549  -6906311.88148  23444380.4114   23444382.3524   23444379.4694
      2975.1824       2318.3394         48.0004         43.0004
 -20072406.33149 -15578349.57749  21244300.6254   21244303.2014   21244300.3084
     -2118.5394      -1650.7954         55.0004         49.0004
 -11037145.63649  -8591802.41748  22518571.5914   22518573.4164   22518572.1624
      2800.6124       2182.3184         51.0004         45.0004
 -14988608.59449 -11426284.44448  22213647.4564   22213649.4554   22213646.8874
     -2549.9124      -1986.9434         52.0004         45.0004
 -25894132.29749 -20132919.60449  20411381.6264   20411385.0484   20411381.7454
     -1136.5784       -885.6434         56.0004         50.0004
 06  1 11 13 17 55.0000000  0  9G 3G29G18G27G19G16G22G21G15
 -23161081.15749 -18005717.30249  20643185.0384   20643188.3334   20643184.9924
      1457.5544       1135.7604         56.0004         50.0004
    -35088.32048    -23139.86047  25161567.4104   25161569.9204   25161567.1014
       202.0814        157.4614         42.0004         36.0004
 -17856387.14149 -13866803.80848  22020964.5344   22020967.3914   22020964.7604
       726.6394        566.2094         53.0004         46.0004
  -3112101.05748  -2377701.08747  24944365.9884   24944370.8874   24944365.7164
       873.1534        680.3874         42.0004         37.0004
  -8918446.32149  -6908630.03648  23443814.1804   23443815.5124   23443812.8174
      2974.8294       2318.0504         48.0004         43.0004
 -20070287.34949 -15576698.42449  21244703.7384   21244706.2874   21244703.9524
     -2119.1944      -1651.3224         55.0004         49.0004
 -11039945.81949  -8593984.38048  22518038.7574   22518040.6594   22518039.8064
      2800.0744       2181.8734         51.0004         45.0004
 -14986058.24349 -11424297.15948  22214132.8054   22214134.9024   22214132.3534
     -2550.5164      -1987.4034         52.0004         45.0004
 -25892995.26549 -20132033.60649  20411598.0524   20411601.4674   20411598.0174
     -1137.2944       -886.2024         56.0004         50.0004
 06  1 11 13 17 56.0000000  0  9G 3G29G18G27G19G16G22G21G15
 -23162538.37049 -18006852.79149  20642907.6584   20642910.7344   20642907.6444
      1456.8894       1135.2274         56.0004         50.0004
    -35289.90748    -23296.94047  25161529.3124   25161532.0304   25161528.8894
       200.9934        156.6164         42.0004         36.0004
 -17857113.36849 -13867369.69448  22020826.3244   22020828.4154   22020826.9114
       725.7444        565.5074         53.0004         46.0004
  -3112974.60947  -2378381.77647  24944199.3874   24944203.7004   24944198.7974
       872.9664        680.2304         41.0004         37.0004
  -8921421.07049  -6910948.01948  23443248.0084   23443249.8784   23443247.5184
      2974.6384       2317.9104         48.0004         43.0004
 -20068167.75649 -15575046.79549  21245106.9594   21245109.7394   21245106.9934
     -2119.9194      -1651.8984         55.0004         49.0004
 -11042745.51849  -8596165.96048  22517505.9164   22517508.2674   22517506.3974
      2799.4224       2181.3634         51.0004         45.0004
 -14983507.50149 -11422309.57048  22214618.1374   22214619.9794   22214617.4194
     -2550.9764      -1987.8044         52.0004         45.0004
 -25891857.62049 -20131147.12849  20411814.5634   20411817.8694   20411814.4654
     -1138.0944       -886.8364         56.0004         50.0004
 06  1 11 13 17 57.0000000  0  9G 3G29G18G27G19G16G22G21G15
 -23163995.19549 -18007987.98049  20642630.4444   20642633.7254   20642630.6204
      1456.8234       1135.1914         56.0004         50.0004
    -35490.93948    -23453.58847  25161491.5054   25161494.7854   25161490.8554
       200.7914        156.4724         42.0004         36.0004
 -17857838.98549 -13867935.10848  22020688.3194   22020690.6804   22020689.0074
       725.4824        565.3154         53.0004         46.0004
  -3113847.61948  -2379062.04047  24944032.5284   24944037.3764   24944032.7974
       873.2424        680.4434         42.0004         37.0004
  -8924395.71349  -6913265.92548  23442681.9574   23442683.8154   23442681.1934
      2974.6924       2317.9444         48.0004         43.0004
 -20066047.65449 -15573394.76649  21245510.3264   21245513.2104   21245510.5334
     -2120.1424      -1652.0584         55.0004         49.0004
 -11045544.83949  -8598347.25548  22516973.2414   22516976.2774   22516973.6154
      2799.1924       2181.1804         51.0004         45.0004
 -14980956.46649 -11420321.75248  22215103.6304   22215104.9974   22215103.2734
     -2551.0244      -1987.8004         52.0004         45.0004
 -25890719.48949 -20130260.27349  20412031.1724   20412034.5634   20412030.9554
     -1138.0774       -886.8074         56.0004         50.0004
 06  1 11 13 17 58.0000000  0  9G 3G29G18G27G19G16G22G21G15
 -23165451.65749 -18009122.88549  20642353.2784   20642356.4894   20642353.5314
      1456.1074       1134.6154         56.0004         50.0004
    -35691.42848    -23609.81047  25161453.3944   25161456.2644   25161452.7894
       200.0374        155.8804         42.0004         36.0004
 -17858564.01649 -13868500.07048  22020550.4664   22020552.7604   22020550.6304
       724.5324        564.5684         53.0004         46.0004
  -3114720.15647  -2379741.94047  24943866.7264   24943871.3484   24943867.0654
       872.4974        679.8634         41.0004         37.0004
  -8927370.28749  -6915583.77748  23442116.1044   23442116.8344   23442115.9274
      2974.4884       2317.7554         48.0004         43.0004
 -20063927.08049 -15571742.37449  21245913.8354   21245916.4814   21245913.7144
     -2120.9964      -1652.7324         55.0004         49.0004
 -11048343.82949  -8600528.28248  22516440.5684   22516443.1714   22516441.9504
      2798.6254       2180.7414         51.0004         45.0004
 -14978405.19349 -11418333.75148  22215589.1494   22215590.6154   22215588.8584
     -2551.5464      -1988.2174         52.0004         45.0004
 -25889580.87749 -20129373.04449  20412247.8684   20412251.4134   20412247.8634
     -1139.0354       -887.5684         56.0004         50.0004
 06  1 11 13 17 59.0000000  0  9G 3G29G18G27G19G16G22G21G15
 -23166907.64749 -18010257.42249  20642076.2574   20642079.4954   20642076.1164
      1455.2094       1133.9184         56.0004         50.0004
    -35891.25148    -23765.51447  25161415.4994   25161418.3994   25161414.9274
       198.9984        155.0474         42.0004         36.0004
 -17859288.34149 -13869064.48048  22020412.7524   22020414.7964   22020413.1934
       723.4074        563.6964         53.0004         46.0004
  -3115592.05747  -2380421.34147  24943700.8944   24943706.1074   24943702.3994
       870.9454        678.6544         41.0004         37.0004
  -8930344.68548  -6917901.48948  23441550.1644   23441552.5364   23441549.3354
      2973.7624       2317.2074         47.0004         43.0004
 -20061805.92049 -15570089.52149  21246317.4994   21246320.1904   21246317.6524
     -2122.0104      -1653.5244         55.0004         49.0004
 -11051142.36549  -8602708.95048  22515907.9614   22515910.9894   22515908.8004
      2797.7484       2180.0484         51.0004         45.0004
 -14975853.53849 -11416345.44748  22216074.7774   22216076.4564   22216074.4164
     -2552.5164      -1988.9884         52.0004         45.0004
 -25888441.69049 -20128485.36549  20412464.6744   20412467.8334   20412464.5174
     -1140.0974       -888.3994         56.0004         50.0004
 06  1 11 13 18  0.0000000  0  9G 3G29G18G27G19G16G22G21G15
 -23168363.24349 -18011391.65349  20641799.2494   20641802.4464   20641799.4344
      1455.9974       1134.5394         56.0004         50.0004
    -36090.50748    -23920.77447  25161377.6414   25161381.3044   25161377.2674
       199.5284        155.4754         42.0004         36.0004
 -17860012.05549 -13869628.41048  22020275.1004   22020277.4304   22020274.7504
       723.9614        564.1174         53.0004         46.0004
  -3116463.45648  -2381100.35347  24943535.2864   24943541.1064   24943536.9174
       871.8044        679.3234         42.0004         37.0004
  -8933318.97349  -6920219.11948  23440984.2894   23440985.1384   23440982.1694
      2974.7064       2317.9454         48.0004         43.0004
 -20059684.25049 -15568436.27349  21246721.2984   21246724.0634   21246721.5664
     -2121.4084      -1653.0524         55.0004         49.0004
 -11053940.51849  -8604889.33448  22515375.5704   22515378.9264   22515376.1134
      2798.3764       2180.5484         51.0004         45.0004
 -14973301.59149 -11414356.91848  22216560.4094   22216561.7174   22216560.1094
     -2551.5294      -1988.2044         52.0004         45.0004
 -25887302.00249 -20127597.29749  20412681.6304   20412684.8484   20412681.6544
     -1139.2774       -887.7514         56.0004         50.0004
 06  1 11 13 18  1.0000000  0  9G 3G29G18G27G19G16G22G21G15
 -23169818.46349 -18012525.59049  20641522.3364   20641525.6304   20641522.3274
      1454.7504       1133.5644         56.0004         50.0004
    -36289.19848    -24075.59547  25161339.8174   25161341.9934   25161339.9954
       197.8014        154.1414         42.0004         36.0004
 -17860735.17949 -13870191.88448  22020137.5554   22020139.1384   22020137.3674
       722.5714        563.0214         53.0004         46.0004
  -3117334.35448  -2381778.97847  24943369.9204   24943375.5904   24943371.0194
       870.6974        678.4614         42.0004         37.0004
  -8936293.18048  -6922536.68448  23440418.2034   23440418.8814   23440417.8744
      2973.9674       2317.3894         47.0004         43.0004
 -20057562.09049 -15566782.64049  21247125.1314   21247127.9534   21247125.4604
     -2122.7084      -1654.0624         55.0004         49.0004
 -11056738.33149  -8607069.44548  22514843.2464   22514845.8324   22514843.7484
      2797.2784       2179.6804         51.0004         45.0004
 -14970749.38649 -11412368.18648  22217046.0304   22217048.4264   22217046.6244
     -2552.4684      -1988.9524         52.0004         45.0004
 -25886161.83249 -20126708.85449  20412898.6954   20412901.8594   20412898.5844
     -1140.7694       -888.9164         56.0004         50.0004
 06  1 11 13 18  2.0000000  0  9G 3G29G18G27G19G16G22G21G15
 -23171273.12249 -18013659.08949  20641245.5344   20641248.7394   20641245.3394
      1454.7374       1133.5524         56.0004         50.0004
    -36487.16347    -24229.85147  25161301.9464   25161304.6664   25161301.4674
       197.5974        153.9794         41.0004         36.0004
 -17861457.52449 -13870754.74948  22020000.0814   22020002.1524   22020000.1024
       722.2584        562.7884         53.0004         46.0004
  -3118204.55847  -2382457.05747  24943204.4054   24943209.4564   24943205.4104
       869.7474        677.7174         41.0004         37.0004
  -8939267.11848  -6924854.03548  23439851.9594   23439852.8934   23439850.8944
      2974.0474       2317.4264         47.0004         42.0004
 -20055439.25649 -15565128.48349  21247529.1184   21247531.7934   21247529.2994
     -2122.9394      -1654.2474         55.0004         49.0004
 -11059535.59549  -8609249.12748  22514311.0604   22514313.4514   22514311.6314
      2797.1144       2179.5604         51.0004         45.0004
 -14968196.72549 -11410379.10048  22217531.7484   22217532.9274   22217531.0914
     -2552.5024      -1988.9704         51.0004         45.0004
 -25885021.00249 -20125819.89449  20413115.8114   20413118.9934   20413115.5334
     -1140.8574       -888.9864         56.0004         50.0004
 06  1 11 13 18  3.0000000  0  9G 3G29G18G27G19G16G22G21G15
 -23172727.49849 -18014792.36849  20640968.8414   20640971.7744   20640968.8634
      1453.6464       1132.7084         56.0004         50.0004
    -36684.67147    -24383.75347  25161263.9084   25161267.7294   25161263.2294
       197.0014        153.5104         41.0004         36.0004
 -17862179.36749 -13871317.22248  22019862.7544   22019864.8944   22019862.3974
       721.0764        561.8924         53.0004         46.0004
  -3119074.38148  -2383134.83747  24943039.1274   24943044.7064   24943040.3114
       869.7734        677.7374         42.0004         37.0004
  -8942241.06348  -6927171.38948  23439285.7684   23439287.2394   23439284.9024
      2973.2684       2316.8244         47.0004         43.0004
 -20053316.03249 -15563474.02349  21247933.1474   21247935.5994   21247933.3814
     -2123.9914      -1655.0614         54.0004         49.0004
 -11062332.60049  -8611428.60748  22513778.9284   22513781.0584   22513778.5964
      2796.1804       2178.8284         51.0004         45.0004
 -14965643.90349 -11408389.88648  22218017.4764   22218019.2754   22218017.5584
     -2553.5454      -1989.7894         52.0004         45.0004
 -25883879.78349 -20124930.63249  20413333.0794   20413335.8134   20413332.7764
     -1142.0334       -889.9004         56.0004         50.0004
 06  1 11 13 18  4.0000000  0  9G 3G29G18G27G19G16G22G21G15
 -23174181.45349 -18015925.32249  20640692.1624   20640695.1374   20640692.1534
      1453.1744       1132.3364         56.0004         50.0004
    -36881.55947    -24537.17247  25161225.9264   25161229.6054   25161224.9964
       196.1894        152.8544         41.0004         36.0004
 -17862900.56349 -13871879.19048  22019725.5634   22019727.9014   22019725.3434
       720.2614        561.2284         53.0004         46.0004
  -3119943.62248  -2383812.17247  24942874.0434   24942880.4704   24942874.2734
       867.8144        676.2214         42.0004         37.0004
  -8945214.88649  -6929488.64548  23438719.6714   23438722.0054   23438720.0394
      2973.2064       2316.7774         48.0004         42.0004
 -20051192.26749 -15561819.14349  21248337.2924   21248340.0684   21248337.2804
     -2124.5454      -1655.4894         55.0004         49.0004
 -11065129.19549  -8613607.77348  22513246.8604   22513248.9834   22513246.9774
      2795.7644       2178.5084         51.0004         45.0004
 -14963090.75049 -11406400.42148  22218503.2754   22218504.9514   22218503.2234
     -2554.0194      -1990.1494         52.0004         45.0004
 -25882738.03949 -20124040.96249  20413550.3844   20413553.2624   20413550.1514
     -1142.7164       -890.4364         56.0004         50.0004
 06  1 11 13 18  5.0000000  0  9G 3G29G18G27G19G16G22G21G15
 -23175634.87549 -18017057.85749  20640415.6154   20640418.7514   20640415.7224
      1452.9714       1132.1774         56.0004         50.0004
    -37077.74647    -24690.04247  25161188.1944   25161192.4494   25161187.5954
       195.4954        152.3244         41.0004         36.0004
 -17863621.00449 -13872440.57148  22019588.4164   22019590.0664   22019587.6694
       719.8084        560.8854         53.0004         46.0004
  -3120812.20248  -2384488.98647  24942709.3444   24942715.3464   24942709.3104
       867.5834        676.0324         42.0004         37.0004
  -8948188.45348  -6931805.70648  23438153.5664   23438155.7884   23438152.9164
      2973.2654       2316.8334         47.0004         42.0004
 -20049067.86349 -15560163.76249  21248741.5024   21248744.2214   21248741.8164
     -2124.8404      -1655.7334         55.0004         49.0004
 -11067925.28449  -8615786.54448  22512714.8414   22512717.0784   22512715.6204
      2795.6774       2178.4424         51.0004         45.0004
 -14960537.18649 -11404410.62948  22218989.2064   22218990.7264   22218988.9044
     -2554.0574      -1990.1784         52.0004         45.0004
 -25881595.65849 -20123150.79549  20413767.7844   20413770.7194   20413767.4324
     -1142.9494       -890.6124         56.0004         50.0004
 06  1 11 13 18  6.0000000  0  9G 3G29G18G27G19G16G22G21G15
 -23177088.03049 -18018190.18749  20640139.1494   20640142.1984   20640139.1444
      1452.8384       1132.0834         56.0004         50.0004
    -37273.45847    -24842.54547  25161150.7244   25161155.9704   25161150.3194
       195.2904        152.1704         41.0004         36.0004
 -17864340.95849 -13873001.57348  22019451.4724   22019453.1084   22019451.5564
       719.4224        560.6024         53.0004         46.0004
  -3121680.39248  -2385165.50047  24942544.5524   24942549.9294   24942544.0644
       868.0714        676.4194         42.0004         37.0004
  -8951162.05648  -6934122.80048  23437587.5174   23437590.7214   23437586.6644
      2973.7404       2317.1974         47.0004         42.0004
 -20046943.07849 -15558508.08649  21249145.8034   21249148.7634   21249145.7484
     -2125.1244      -1655.9354         55.0004         49.0004
 -11070721.10949  -8617965.11048  22512182.7894   22512185.6874   22512183.2104
      2795.3294       2178.1844         51.0004         45.0004
 -14957983.46049 -11402420.71648  22219475.0964   22219476.1554   22219475.3714
     -2554.0154      -1990.1394         52.0004         45.0004
 -25880452.90849 -20122260.33949  20413985.3124   20413988.2254   20413984.6834
     -1143.0184       -890.6624         56.0004         50.0004
 06  1 11 13 18  7.0000000  0  9G 3G29G18G27G19G16G22G21G15
 -23178540.70549 -18019322.14049  20639862.7254   20639865.6754   20639862.6104
      1452.1014       1131.5014         56.0004         50.0004
    -37468.54847    -24994.56347  25161113.4074   25161118.5414   25161113.8934
       194.3044        151.4054         41.0004         36.0004
 -17865060.20949 -13873562.02848  22019314.6684   22019316.4264   22019314.7474
       718.7414        560.0534         53.0004         46.0004
  -3122547.97147  -2385841.53847  24942379.6534   24942384.4814   24942378.3434
       867.0334        675.6124         41.0004         37.0004
  -8954135.46048  -6936439.73748  23437021.6164   23437025.2684   23437021.8324
      2973.2584       2316.8214         47.0004         42.0004
 -20044817.69949 -15556851.94849  21249550.2304   21249553.2844   21249550.4344
     -2125.8554      -1656.5084         55.0004         49.0004
 -11073516.50049  -8620143.33548  22511650.8814   22511652.8984   22511651.9134
      2795.0174       2177.9344         51.0004         45.0004
 -14955429.38849 -11400430.52948  22219961.1344   22219962.4564   22219960.9434
     -2553.9194      -1990.0574         51.0004         45.0004
 -25879309.56949 -20121369.42449  20414202.9514   20414205.6094   20414202.4774
     -1143.7914       -891.2674         56.0004         50.0004
 06  1 11 13 18  8.0000000  0  9G 3G29G18G27G19G16G22G21G15
 -23179993.04149 -18020453.83149  20639586.4254   20639589.4804   20639586.3354
      1452.1494       1131.5544         56.0004         50.0004
    -37663.09448    -25146.15647  25161076.6364   25161082.5774   25161077.3514
       194.1804        151.3054         42.0004         36.0004
 -17865778.88649 -13874122.03648  22019177.9194   22019179.8464   22019177.6854
       718.4044        559.7954         53.0004         46.0004
  -3123415.06147  -2386517.19247  24942214.6704   24942218.7734   24942213.0344
       866.4634        675.1684         41.0004         37.0004
  -8957108.81148  -6938756.62948  23436455.6734   23436458.1784   23436455.3414
      2973.4454       2316.9724         47.0004         42.0004
 -20042691.86649 -15555195.45749  21249954.8514   21249957.5744   21249955.2044
     -2125.9774      -1656.5904         55.0004         49.0004
 -11076311.55049  -8622321.30048  22511118.8754   22511121.1084   22511119.8914
      2794.7814       2177.7554         51.0004         45.0004
 -14952875.05449 -11398440.14048  22220447.1174   22220448.2604   22220447.2394
     -2554.4384      -1990.4884         51.0004         45.0004
 -25878165.77749 -20120478.15949  20414420.6804   20414423.5654   20414420.2534
     -1143.9984       -891.4194         56.0004         50.0004
 06  1 11 13 18  9.0000000  0  9G 3G29G18G27G19G16G22G21G15
 -23181444.82949 -18021585.09349  20639310.2444   20639313.1504   20639309.9624
      1451.2274       1130.8344         56.0004         50.0004
    -37856.92347    -25297.19447  25161039.8824   25161044.7694   25161040.5684
       193.3324        150.6604         41.0004         36.0004
 -17866496.80649 -13874681.45248  22019041.3264   22019043.0414   22019041.1074
       717.3014        558.9334         53.0004         46.0004
  -3124281.48247  -2387192.32647  24942049.7894   24942054.2434   24942048.6314
       865.4354        674.3654         41.0004         37.0004
  -8960081.90948  -6941073.32948  23435889.7784   23435891.8954   23435889.3244
      2972.7704       2316.4404         47.0004         42.0004
 -20040565.36649 -15553538.44349  21250359.5654   21250362.4134   21250359.6014
     -2127.1074      -1657.4844         55.0004         49.0004
 -11079106.07549  -8624498.85348  22510587.0214   22510589.2604   22510587.6174
      2793.9844       2177.1314         51.0004         45.0004
 -14950320.30449 -11396449.42348  22220933.3244   22220935.1744   22220932.8724
     -2555.1064      -1990.9984         52.0004         45.0004
 -25877021.34349 -20119586.39149  20414638.5124   20414641.2714   20414637.7034
     -1144.9864       -892.1944         56.0004         50.0004
 06  1 11 13 18 10.0000000  0  9G 3G29G18G27G19G16G22G21G15
 -23182896.37449 -18022716.16849  20639034.1234   20639036.9384   20639033.9384
      1451.3484       1130.9274         56.0004         50.0004
    -38050.32948    -25447.90147  25161003.1754   25161008.0974   25161004.1914
       193.0644        150.4304         42.0004         36.0004
 -17867214.24349 -13875240.49348  22018904.8064   22018907.0254   22018904.7414
       717.1914        558.8654         53.0004         46.0004
  -3125147.55447  -2387867.19047  24941885.0714   24941888.9874   24941884.1524
       865.6904        674.5684         41.0004         37.0004
  -8963055.04648  -6943390.05648  23435323.7894   23435326.7274   23435324.3724
      2973.1474       2316.7354         47.0004         42.0004
 -20038438.51549 -15551881.15949  21250764.3784   21250767.0494   21250764.2084
     -2127.0884      -1657.4674         55.0004         49.0004
 -11081900.38449  -8626676.23048  22510055.2284   22510057.2394   22510056.1254
      2794.1354       2177.2764         51.0004         45.0004
 -14947765.40949 -11394458.59548  22221419.4904   22221421.3074   22221419.5224
     -2554.9164      -1990.8394         51.0004         45.0004
 -25875876.55749 -20118694.35149  20414856.4054   20414859.2104   20414855.6394
     -1144.9904       -892.1924         56.0004         50.0004
 06  1 11 13 18 11.0000000  0  9G 3G29G18G27G19G16G22G21G15
 -23184347.32149 -18023846.77549  20638758.0954   20638760.8724   20638757.7534
      1450.6974       1130.4204         56.0004         50.0004
    -38242.96048    -25597.99947  25160966.4854   25160971.5304   25160967.5604
       192.0274        149.6274         42.0004         36.0004
 -17867930.87149 -13875798.90448  22018768.4174   22018770.3734   22018768.4404
       716.2574        558.1304         53.0004         46.0004
  -3126012.88747  -2388541.47747  24941720.6554   24941724.0034   24941719.1444
       864.6274        673.7334         41.0004         37.0004
  -8966027.88348  -6945706.54648  23434758.0534   23434760.5604   23434758.1704
      2972.7764       2316.4584         47.0004         42.0004
 -20036310.95449 -15550223.31649  21251169.3014   21251171.7674   21251169.2124
     -2127.9454      -1658.1394         55.0004         49.0004
 -11084694.10549  -8628853.15548  22509523.4744   22509526.2874   22509524.3684
      2793.3844       2176.6594         51.0004         45.0004
 -14945210.01449 -11392467.38048  22221905.7514   22221907.4544   22221905.6624
     -2555.8574      -1991.5654         52.0004         45.0004
 -25874731.06349 -20117801.75749  20415074.3834   20415077.1004   20415073.6434
     -1145.8854       -892.8934         56.0004         50.0004
 06  1 11 13 18 12.0000000  0  9G 3G29G18G27G19G16G22G21G15
 -23185797.95049 -18024977.13549  20638482.0874   20638484.5664   20638481.8534
      1449.9204       1129.8054         56.0004         50.0004
    -38435.10847    -25747.72247  25160930.0824   25160934.9694   25160930.4224
       191.4004        149.1464         41.0004         36.0004
 -17868646.96149 -13876356.89748  22018632.1374   22018633.8604   22018632.2684
       715.3704        557.4344         53.0004         46.0004
  -3126877.77548  -2389215.41747  24941556.2574   24941558.9814   24941554.9474
       863.7304        673.0404         42.0004         37.0004
  -8969000.68049  -6948023.01248  23434192.4644   23434194.6894   23434192.0644
      2972.1874       2315.9994         48.0004         42.0004
 -20034182.97149 -15548565.14849  21251574.3224   21251576.4234   21251574.4244
     -2128.7134      -1658.7314         55.0004         49.0004
 -11087487.53849  -8631029.85248  22508991.8824   22508994.5594   22508992.7544
      2792.9234       2176.3124         51.0004         45.0004
 -14942654.44149 -11390476.02748  22222392.2164   22222394.0804   22222391.8204
     -2555.9004      -1991.6034         51.0004         45.0004
 -25873585.15549 -20116908.84149  20415292.3434   20415295.1054   20415291.7164
     -1146.6844       -893.5224         56.0004         50.0004
 06  1 11 13 18 13.0000000  0  9G 3G29G18G27G19G16G22G21G15
 -23187248.18449 -18026107.18749  20638206.1114   20638208.9054   20638205.7964
      1450.2894       1130.1044         56.0004         50.0004
    -38626.66247    -25896.98447  25160893.6054   25160898.0434   25160893.1334
       191.8824        149.5184         41.0004         36.0004
 -17869362.43649 -13876914.40848  22018495.9274   22018497.8574   22018495.6734
       715.6474        557.6494         53.0004         46.0004
  -3127742.10248  -2389888.91947  24941392.0934   24941393.9874   24941390.1874
       864.0454        673.2834         42.0004         37.0004
  -8971973.38749  -6950339.40748  23433626.9724   23433629.1884   23433627.7904
      2972.9174       2316.5634         48.0004         42.0004
 -20032054.47449 -15546906.58049  21251979.3884   21251981.8694   21251979.2394
     -2128.3744      -1658.4614         55.0004         49.0004
 -11090280.58949  -8633206.25648  22508460.3054   22508462.4314   22508461.4414
      2793.2284       2176.5494         51.0004         45.0004
 -14940098.56849 -11388484.43948  22222878.5844   22222880.0264   22222877.8634
     -2555.6284      -1991.3844         51.0004         45.0004
 -25872438.74449 -20116015.53449  20415510.3914   20415513.4184   20415509.8894
     -1146.3734       -893.2724         56.0004         50.0004
 06  1 11 13 18 14.0000000  0  9G 3G29G18G27G19G16G22G21G15
 -23188697.97449 -18027236.89449  20637930.1954   20637932.9104   20637929.9834
      1449.3964       1129.4064         56.0004         50.0004
    -38817.60047    -26045.77047  25160857.1684   25160862.5164   25160856.6854
       190.6524        148.5564         41.0004         36.0004
 -17870077.23549 -13877471.39148  22018359.7824   22018361.6914   22018359.7794
       714.3584        556.6414         53.0004         46.0004
  -3128605.91047  -2390562.01747  24941227.6764   24941229.0794   24941226.2284
       863.4414        672.8214         41.0004         37.0004
  -8974945.92649  -6952655.67148  23433061.6134   23433063.2294   23433062.1424
      2972.2414       2316.0344         48.0004         42.0004
 -20029925.41849 -15545247.57849  21252384.4984   21252386.8384   21252384.2904
     -2129.4164      -1659.2764         55.0004         49.0004
 -11093073.21049  -8635382.32148  22507928.9024   22507931.5394   22507930.3014
      2792.2294       2175.7664         51.0004         45.0004
 -14937542.36649 -11386492.59048  22223365.0854   22223366.7914   22223365.7074
     -2556.4904      -1992.0724         52.0004         45.0004
 -25871291.77949 -20115121.79249  20415728.5134   20415731.6484   20415728.1374
     -1147.4404       -894.1024         56.0004         50.0004
 06  1 11 13 18 15.0000000  0  9G 3G29G18G27G19G16G22G21G15
 -23190147.33749 -18028366.26649  20637654.4034   20637657.3064   20637653.8994
      1449.0934       1129.1614         56.0004         50.0004
    -39007.93248    -26194.07447  25160820.7274   25160826.4574   25160821.2694
       190.2124        148.2084         42.0004         36.0004
 -17870791.38849 -13878027.87248  22018223.9254   22018225.7294   22018223.8154
       713.7574        556.1754         53.0004         46.0004
  -3129469.13748  -2391234.66247  24941063.4914   24941064.9334   24941061.8934
       862.8484        672.3464         42.0004         37.0004
  -8977918.33649  -6954971.83548  23432496.3034   23432497.9754   23432496.6684
      2972.1894       2315.9884         48.0004         42.0004
 -20027795.82049 -15543588.15149  21252789.6324   21252791.9614   21252789.6934
     -2129.9114      -1659.6714         55.0004         49.0004
 -11095865.42649  -8637558.07848  22507397.5824   22507400.5394   22507398.0214
      2791.9884       2175.6004         51.0004         45.0004
 -14934985.85149 -11384500.50348  22223851.5924   22223852.9734   22223851.5884
     -2556.6814      -1992.2164         52.0004         45.0004
 -25870144.29249 -20114227.64749  20415946.8404   20415949.9094   20415946.3794
     -1147.7944       -894.3834         56.0004         50.0004
 06  1 11 13 18 16.0000000  0  9G 3G29G18G27G19G16G22G21G15
 -23191596.36449 -18029495.37849  20637378.6874   20637381.3134   20637378.3224
      1448.7604       1128.9054         56.0004         50.0004
    -39197.75747    -26341.99047  25160785.1844   25160789.6394   25160785.7944
       189.6984        147.8204         41.0004         36.0004
 -17871504.98249 -13878583.91748  22018088.1834   22018090.3244   22018087.7944
       713.1564        555.6984         53.0004         46.0004
  -3130331.90048  -2391906.94847  24940899.3094   24940901.0914   24940897.3854
       862.1904        671.8264         42.0004         37.0004
  -8980890.69749  -6957287.96348  23431930.9234   23431932.3254   23431930.0694
      2972.2004       2316.0114         48.0004         42.0004
 -20025665.77849 -15541928.37849  21253194.9704   21253197.5044   21253194.9594
     -2130.4014      -1660.0524         55.0004         49.0004
 -11098657.32249  -8639733.58048  22506866.4194   22506868.8784   22506867.6524
      2791.5304       2175.2344         51.0004         45.0004
 -14932429.10449 -11382508.23248  22224338.1134   22224339.2644   22224337.5124
     -2557.0354      -1992.5124         52.0004         45.0004
 -25868996.36149 -20113333.15649  20416165.2474   20416168.2784   20416164.7384
     -1148.2714       -894.7574         56.0004         50.0004
 06  1 11 13 18 17.0000000  0  9G 3G29G18G27G19G16G22G21G15
 -23193044.89649 -18030624.10349  20637103.0784   20637105.4544   20637102.5654
      1448.9104       1129.0294         56.0004         50.0004
    -39386.88048    -26489.35547  25160749.4704   25160753.4834   25160749.5014
       189.4204        147.6014         42.0004         36.0004
 -17872217.85349 -13879139.40248  22017952.5554   22017954.6934   22017952.5544
       713.0914        555.6534         53.0004         46.0004
  -3131194.07647  -2392578.77147  24940735.0924   24940736.7954   24940733.2284
       862.9854        672.4564         41.0004         37.0004
  -8983862.84449  -6959603.92248  23431365.5794   23431366.6284   23431365.9224
      2972.6084       2316.3234         48.0004         42.0004
 -20023535.12749 -15540268.13049  21253600.3794   21253602.5674   21253600.3254
     -2130.4094      -1660.0504         55.0004         49.0004
 -11101448.74749  -8641908.71248  22506335.2894   22506337.1194   22506336.1254
      2791.6714       2175.3294         51.0004         45.0004
 -14929871.97449 -11380515.66448  22224824.6794   22224826.0014   22224824.1694
     -2556.8644      -1992.3684         52.0004         45.0004
 -25867847.82649 -20112438.19349  20416383.7934   20416386.6544   20416383.4304
     -1148.2474       -894.7364         56.0004         50.0004
 06  1 11 13 18 18.0000000  0  9G 3G29G18G27G19G16G22G21G15
 -23194493.00449 -18031752.49749  20636827.5184   20636829.9894   20636827.1464
      1447.6834       1128.0644         56.0004         50.0004
    -39575.42748    -26636.27347  25160713.8574   25160717.7074   25160714.8154
       187.9354        146.4424         42.0004         36.0004
 -17872930.09049 -13879694.39448  22017817.0744   22017818.9794   22017817.0614
       711.7654        554.6394         53.0004         46.0004
  -3132055.61948  -2393250.10647  24940571.3724   24940572.6334   24940568.6104
       861.1314        671.0084         42.0004         37.0004
  -8986834.87249  -6961919.78748  23430800.1204   23430800.7744   23430799.7444
      2971.8294       2315.7114         48.0004         42.0004
 -20021403.94849 -15538607.47349  21254005.9004   21254008.5194   21254005.9954
     -2131.6594      -1661.0324         55.0004         49.0004
 -11104239.76249  -8644083.52748  22505804.3054   22505805.7324   22505804.6794
      2790.6114       2174.5074         51.0004         45.0004
 -14927314.53449 -11378522.85248  22225311.3794   22225312.8824   22225310.9814
     -2557.8994      -1993.1714         52.0004         45.0004
 -25866698.77249 -20111542.82849  20416602.4304   20416605.5524   20416601.9614
     -1149.5394       -895.7414         56.0004         50.0004
 06  1 11 13 18 19.0000000  0  9G 3G29G18G27G19G16G22G21G15
 -23195940.71149 -18032880.58249  20636552.0194   20636554.6534   20636551.9564
      1448.0844       1128.3924         56.0004         50.0004
    -39763.40548    -26782.74647  25160678.0774   25160681.8594   25160678.2684
       188.2324        146.6734         42.0004         36.0004
 -17873641.70249 -13880248.89548  22017681.6664   22017683.3914   22017681.2114
       711.9204        554.7514         53.0004         46.0004
  -3132916.68348  -2393921.06347  24940407.2964   24940408.4534   24940404.1874
       860.9864        670.8914         43.0004         37.0004
  -8989806.78249  -6964235.56048  23430234.8214   23430235.7344   23430234.6884
      2972.1924       2316.0234         48.0004         42.0004
 -20019272.25349 -15536946.41249  21254411.5534   21254414.0854   21254411.5474
     -2131.4224      -1660.8374         55.0004         49.0004
 -11107030.39949  -8646258.04648  22505273.3114   22505275.8184   22505274.2634
      2791.0054       2174.8234         52.0004         45.0004
 -14924756.82449 -11376529.82948  22225798.1854   22225799.3464   22225797.8194
     -2557.1534      -1992.5804         52.0004         45.0004
 -25865549.21649 -20110647.06949  20416821.0854   20416824.4754   20416820.7634
     -1149.2884       -895.5404         56.0004         50.0004
 06  1 11 13 18 20.0000000  0  9G 3G29G18G27G19G16G22G21G15
 -23197388.03549 -18034008.36649  20636276.5814   20636279.3974   20636276.3134
      1447.8244       1128.1814         56.0004         50.0004
    -39950.78947    -26928.75547  25160642.4214   25160646.1794   25160642.4034
       187.6634        146.2374         41.0004         36.0004
 -17874352.71849 -13880802.93148  22017546.2714   22017547.9834   22017545.7544
       711.4894        554.4124         53.0004         46.0004
  -3133777.24347  -2394591.62947  24940243.4294   24940244.2454   24940240.1574
       861.2834        671.1254         41.0004         37.0004
  -8992778.61749  -6966551.27648  23429669.4164   23429669.8094   23429669.0594
      2972.5234       2316.2564         48.0004         42.0004
 -20017140.07449 -15535284.97549  21254817.3094   21254820.1864   21254817.2914
     -2131.6444      -1661.0204         55.0004         49.0004
 -11109820.67649  -8648432.29248  22504742.5234   22504743.8544   22504742.8904
      2790.8494       2174.7044         51.0004         45.0004
 -14922198.82649 -11374536.58548  22226285.0564   22226286.3834   22226284.6854
     -2557.1104      -1992.5364         52.0004         45.0004
 -25864399.17349 -20109750.93249  20417039.8414   20417043.2514   20417039.7964
     -1149.4634       -895.6744         56.0004         50.0004
 06  1 11 13 18 21.0000000  0  9G 3G29G18G27G19G16G22G21G15
 -23198834.94849 -18035135.83149  20636001.2784   20636003.9334   20636000.8794
      1446.4364       1127.0974         56.0004         50.0004
    -40137.61648    -27074.33247  25160606.8604   25160609.8244   25160606.7934
       186.5674        145.3904         42.0004         36.0004
 -17875063.08549 -13881356.46148  22017411.0824   22017412.5814   22017410.9434
       709.8094        553.1024         53.0004         46.0004
  -3134637.19947  -2395261.72247  24940079.3404   24940080.6694   24940076.3714
       858.9994        669.3544         41.0004         37.0004
  -8995750.31349  -6968866.88548  23429104.0194   23429104.3104   23429103.4374
      2971.4854       2315.4534         48.0004         43.0004
 -20015007.36049 -15533623.12049  21255223.1214   21255225.6214   21255223.1064
     -2133.3004      -1662.3124         55.0004         49.0004
 -11112610.55949  -8650606.22448  22504211.7924   22504213.4544   22504211.4554
      2789.5274       2173.6704         51.0004         45.0004
 -14919640.52049 -11372543.10148  22226771.9014   22226773.7534   22226771.4754
     -2558.9164      -1993.9384         52.0004         45.0004
 -25863248.61749 -20108854.39549  20417258.6954   20417261.9604   20417258.6574
     -1151.0684       -896.9284         56.0004         50.0004
 06  1 11 13 18 22.0000000  0  9G 3G29G18G27G19G16G22G21G15
 -23200281.34949 -18036262.89449  20635726.0384   20635728.4494   20635725.6944
      1445.8584       1126.6234         56.0004         50.0004
    -40323.71348    -27219.34447  25160571.5794   25160573.6534   25160572.3754
       185.2554        144.3464         42.0004         36.0004
 -17875772.72349 -13881909.42648  22017275.9874   22017278.2014   22017276.0214
       709.0414        552.4904         53.0004         46.0004
  -3135496.60548  -2395931.39047  24939915.7824   24939918.3214   24939913.3014
       858.9914        669.3334         42.0004         37.0004
  -8998721.78649  -6971182.31948  23428538.6734   23428539.3254   23428538.7064
      2971.0804       2315.1194         48.0004         43.0004
 -20012874.03249 -15531960.78349  21255629.0114   21255631.6204   21255629.0904
     -2133.8934      -1662.7884         55.0004         49.0004
 -11115399.94749  -8652779.77248  22503681.1024   22503683.2814   22503681.0134
      2788.9664       2173.2134         51.0004         45.0004
 -14917081.82649 -11370549.30748  22227258.7064   22227260.0344   22227258.0584
     -2559.1334      -1994.1574         52.0004         45.0004
 -25862097.43949 -20107957.37249  20417477.7324   20417481.1564   20417477.4224
     -1151.8274       -897.5454         56.0004         50.0004
 06  1 11 13 18 23.0000000  0  9G 3G29G18G27G19G16G22G21G15
 -23201727.46549 -18037389.74149  20635450.9014   20635453.3914   20635450.5874
      1445.2244       1126.1464         56.0004         50.0004
    -40509.37348    -27364.01147  25160536.5144   25160540.1674   25160537.0914
       184.6484        143.8744         42.0004         36.0004
 -17876481.85549 -13882461.99748  22017141.0494   22017143.2834   22017140.2454
       708.1064        551.7614         53.0004         46.0004
  -3136355.56047  -2396600.70347  24939752.0484   24939754.6254   24939750.8714
       857.7824        668.3994         41.0004         37.0004
  -9001693.26349  -6973497.75548  23427973.3924   23427974.0444   23427972.5764
      2970.7354       2314.8544         48.0004         43.0004
 -20010740.30449 -15530298.14149  21256034.9844   21256037.8124   21256035.1994
     -2134.5934      -1663.3244         55.0004         49.0004
 -11118189.06549  -8654953.10548  22503150.3894   22503151.9514   22503150.2834
      2788.3184       2172.7314         51.0004         45.0004
 -14914522.95649 -11368555.38648  22227745.5964   22227747.1884   22227745.3434
     -2559.4434      -1994.3774         52.0004         45.0004
 -25860945.87849 -20107060.05249  20417696.8524   20417700.3724   20417696.8984
     -1152.5124       -898.0664         56.0004         50.0004
 06  1 11 13 18 24.0000000  0  9G 3G29G18G27G19G16G22G21G15
 -23203173.09249 -18038516.20249  20635175.8214   20635178.3184   20635175.5004
      1445.8174       1126.6094         56.0004         50.0004
    -40694.36548    -27508.15947  25160501.3884   25160504.6804   25160500.6344
       185.2224        144.3304         42.0004         36.0004
 -17877190.26449 -13883014.00148  22017006.1714   22017008.2954   22017006.1154
       708.3934        551.9894         53.0004         46.0004
  -3137213.86447  -2397269.51347  24939588.4144   24939591.3994   24939587.5834
       857.8594        668.4574         41.0004         37.0004
  -9004664.53749  -6975813.03448  23427407.7834   23427408.1094   23427406.6914
      2971.6084       2315.5424         48.0004         43.0004
 -20008605.97249 -15528635.02449  21256441.0604   21256443.7374   21256441.1974
     -2134.2424      -1663.0464         55.0004         49.0004
 -11120977.69949  -8657126.06348  22502619.8354   22502621.0824   22502619.1074
      2788.8494       2173.1304         51.0004         45.0004
 -14911963.68249 -11366561.14548  22228232.6184   22228234.2074   22228232.4194
     -2559.3934      -1994.3344         51.0004         45.0004
 -25859793.71349 -20106162.26149  20417916.1484   20417919.5824   20417915.8954
     -1152.0994       -897.7434         56.0004         50.0004
 06  1 11 13 18 25.0000000  0  9G 3G29G18G27G19G16G22G21G15
 -23204618.38549 -18039642.40649  20634900.8224   20634903.4094   20634900.3374
      1445.4734       1126.3484         56.0004         50.0004
    -40878.83148    -27651.89847  25160466.2954   25160470.5704   25160466.8444
       184.6664        143.8934         42.0004         36.0004
 -17877898.13549 -13883565.59048  22016871.5024   22016873.5154   22016871.3544
       707.9344        551.6454         53.0004         46.0004
  -3138071.77047  -2397938.01247  24939425.4674   24939428.9234   24939424.9764
       858.3644        668.8604         41.0004         37.0004
  -9007635.77649  -6978128.29348  23426842.2144   23426843.5894   23426842.4494
      2971.4734       2315.4484         48.0004         43.0004
 -20006471.19849 -15526971.56649  21256847.1844   21256850.0154   21256847.6374
     -2134.7324      -1663.4214         54.0004         49.0004
 -11123766.04349  -8659298.80048  22502089.2574   22502089.9524   22502089.1214
      2788.6104       2172.9514         51.0004         45.0004
 -14909404.22849 -11364566.76548  22228719.6184   22228722.2334   22228720.3504
     -2559.1144      -1994.1154         52.0004         45.0004
 -25858641.13149 -20105264.14749  20418135.4934   20418138.8664   20418135.4294
     -1152.4214       -897.9844         56.0004         50.0004
 06  1 11 13 18 26.0000000  0  9G 3G29G18G27G19G16G22G21G15
 -23206063.18049 -18040768.22049  20634625.9484   20634628.4364   20634625.5274
      1445.2094       1126.1374         56.0004         50.0004
    -41062.62048    -27795.10947  25160431.2284   25160435.4284   25160431.7964
       184.1534        143.5124         42.0004         36.0004
 -17878605.27349 -13884116.60748  22016736.9414   22016739.0864   22016736.4674
       707.4304        551.2414         53.0004         46.0004
  -3138928.98347  -2398605.97047  24939261.9854   24939266.1274   24939262.0764
       857.7824        668.4044         41.0004         37.0004
  -9010606.80749  -6980443.38348  23426276.6704   23426277.3234   23426276.5694
      2971.7104       2315.6384         48.0004         42.0004
 -20004335.81849 -15525307.63349  21257253.5234   21257256.2914   21257254.0934
     -2134.9704      -1663.6074         54.0004         49.0004
 -11126553.89049  -8661471.14348  22501558.7984   22501559.7354   22501558.5904
      2788.2824       2172.6904         51.0004         45.0004
 -14906844.36149 -11362572.06748  22229206.7454   22229207.7704   22229206.5394
     -2559.3954      -1994.3274         52.0004         45.0004
 -25857487.93349 -20104365.55049  20418354.9584   20418358.5794   20418355.0104
     -1152.9054       -898.3694         56.0004         50.0004
 06  1 11 13 18 27.0000000  0  9G 3G29G18G27G19G16G22G21G15
 -23207507.64249 -18041893.77649  20634351.0294   20634353.4054   20634350.5294
      1444.6174       1125.6834         56.0004         50.0004
    -41245.90548    -27937.93047  25160396.2734   25160399.7334   25160396.2274
       183.2224        142.7814         42.0004         36.0004
 -17879311.85549 -13884667.18848  22016602.4544   22016604.0954   22016602.2384
       706.6774        550.6584         53.0004         46.0004
  -3139785.74947  -2399273.58147  24939098.9684   24939103.2074   24939098.3974
       856.1724        667.1464         41.0004         37.0004
  -9013577.79049  -6982758.43948  23425711.2764   23425713.5504   23425710.4094
      2971.2434       2315.2654         48.0004         43.0004
 -20002199.99049 -15523643.35049  21257659.9424   21257662.9024   21257660.3054
     -2135.7914      -1664.2474         55.0004         49.0004
 -11129341.42549  -8663643.24448  22501028.4894   22501029.8524   22501028.1334
      2787.6914       2172.2274         52.0004         45.0004
 -14904284.26049 -11360577.18348  22229693.9284   22229695.6684   22229693.4674
     -2560.2274      -1994.9754         52.0004         45.0004
 -25856334.29749 -20103466.61249  20418574.5224   20418577.8754   20418574.3754
     -1153.6394       -898.9354         56.0004         50.0004
 06  1 11 13 18 28.0000000  0  9G 3G29G18G27G19G16G22G21G15
 -23208951.53449 -18043018.88749  20634076.2014   20634078.9764   20634075.6694
      1443.5474       1124.8394         56.0004         50.0004
    -41428.45548    -28080.17547  25160361.5454   25160365.1954   25160362.1684
       182.3424        142.0834         42.0004         36.0004
 -17880017.65049 -13885217.15748  22016468.1564   22016470.0774   22016467.6734
       705.3984        549.6554         53.0004         46.0004
  -3140641.83847  -2399940.66547  24938935.5394   24938940.6274   24938935.4934
       855.6264        666.7154         40.0004         37.0004
  -9016548.50649  -6985073.27748  23425146.0484   23425147.2974   23425145.9614
      2970.6014       2314.7494         48.0004         43.0004
 -20000063.48049 -15521978.53949  21258066.4684   21258069.5474   21258066.7824
     -2136.9164      -1665.1264         54.0004         49.0004
 -11132128.42149  -8665814.93048  22500498.2244   22500499.8074   22500497.9454
      2786.7314       2171.5014         51.0004         45.0004
 -14901723.73649 -11358581.96748  22230181.2144   22230182.2914   22230181.0434
     -2560.7204      -1995.3604         52.0004         45.0004
 -25855180.00149 -20102567.16049  20418794.1894   20418797.6124   20418794.0234
     -1154.6134       -899.6994         56.0004         50.0004
 06  1 11 13 18 29.0000000  0  9G 3G29G18G27G19G16G22G21G15
 -23210395.14149 -18044143.77549  20633801.4764   20633804.2564   20633801.1104
      1443.1314       1124.5094         56.0004         50.0004
    -41610.51948    -28222.03847  25160326.5904   25160330.7594   25160326.7314
       181.4654        141.3884         42.0004         36.0004
 -17880722.92549 -13885766.71948  22016333.8054   22016335.9134   22016333.8484
       704.4594        548.9304         53.0004         46.0004
  -3141497.47147  -2400607.39047  24938772.2874   24938777.1804   24938771.6784
       854.9884        666.2244         41.0004         37.0004
  -9019519.20849  -6987388.11148  23424580.7214   23424582.1784   23424579.2974
      2970.3184       2314.5294         48.0004         43.0004
 -19997926.57749 -15520313.42049  21258473.1074   21258476.0874   21258473.4824
     -2137.6074      -1665.6774         54.0004         49.0004
 -11134915.13549  -8667986.39548  22499967.9354   22499968.6164   22499967.4474
      2786.1154       2170.9964         51.0004         45.0004
 -14899163.01649 -11356586.59948  22230668.5644   22230669.9194   22230667.2794
     -2561.5364      -1996.0174         52.0004         45.0004
 -25854025.30349 -20101667.39649  20419013.9814   20419017.2334   20419014.0044
     -1155.4194       -900.3344         56.0004         50.0004
 06  1 11 13 18 30.0000000  0  9G 3G29G18G27G19G16G22G21G15
 -23211838.37349 -18045268.37249  20633526.8064   20633529.4494   20633526.3054
      1442.9914       1124.4024         56.0004         50.0004
    -41792.02248    -28363.46847  25160291.9384   25160296.1104   25160292.4754
       181.1014        141.1274         42.0004         36.0004
 -17881427.61149 -13886315.82548  22016199.5724   22016201.9394   22016199.5294
       704.3974        548.8644         53.0004         46.0004
  -3142352.62047  -2401273.74347  24938608.9684   24938613.6974   24938609.1114
       853.9184        665.3964         40.0004         37.0004
  -9022489.83649  -6989702.88248  23424015.5664   23424016.5054   23424014.3954
      2970.4254       2314.6264         48.0004         43.0004
 -19995789.19849 -15518647.93149  21258879.9144   21258882.9934   21258880.1714
     -2137.6304      -1665.6934         54.0004         49.0004
 -11137701.49849  -8670157.58948  22499437.8354   22499438.9624   22499437.6004
      2786.1354       2170.9954         52.0004         45.0004
 -14896602.05049 -11354591.04648  22231155.9614   22231156.4514   22231155.3874
     -2561.0214      -1995.6274         52.0004         45.0004
 -25852870.13549 -20100767.26749  20419233.8694   20419237.0854   20419233.7644
     -1155.3854       -900.2994         56.0004         50.0004
 06  1 11 13 18 31.0000000  0  9G 3G29G18G27G19G16G22G21G15
 -23213281.07849 -18046392.55749  20633252.2094   20633254.7274   20633251.8244
      1442.6224       1124.1304         56.0004         50.0004
    -41972.82847    -28504.35347  25160257.2694   25160260.7434   25160258.3134
       180.5874        140.7084         41.0004         36.0004
 -17882131.53449 -13886864.33848  22016065.5474   22016067.4564   22016065.8014
       703.8114        548.4364         53.0004         46.0004
  -3143207.16247  -2401939.61947  24938446.4244   24938451.4884   24938447.5884
       854.2664        665.6584         40.0004         37.0004
  -9025460.22549  -6992017.47548  23423450.3724   23423450.0454   23423449.8464
      2970.5484       2314.7124         48.0004         43.0004
 -19993651.15949 -15516981.92749  21259286.8074   21259289.5654   21259287.2484
     -2138.3154      -1666.2074         54.0004         49.0004
 -11140487.34749  -8672328.38148  22498907.6614   22498908.4974   22498907.4334
      2785.8024       2170.7674         51.0004         45.0004
 -14894040.64849 -11352595.14248  22231643.4154   22231644.3534   22231643.3004
     -2561.2744      -1995.7934         52.0004         45.0004
 -25851714.32649 -20099866.63549  20419453.8644   20419457.0774   20419453.5634
     -1155.8794       -900.6764         56.0004         50.0004
 06  1 11 13 18 32.0000000  0  9G 3G29G18G27G19G16G22G21G15
 -23214723.36649 -18047516.41849  20632977.6054   20632980.4654   20632977.5654
      1442.2174       1123.8104         56.0004         50.0004
    -42153.04347    -28644.78147  25160222.8344   25160226.9294   25160224.3794
       180.0454        140.2954         41.0004         36.0004
 -17882834.83549 -13887412.36548  22015931.6584   22015934.2004   22015931.6284
       703.1844        547.9364         53.0004         46.0004
  -3144061.12047  -2402605.04147  24938283.9064   24938289.1894   24938284.3504
       853.6734        665.2024         40.0004         37.0004
  -9028430.49649  -6994331.97448  23422885.2814   23422886.3824   23422884.4494
      2970.3184       2314.5314         48.0004         43.0004
 -19991512.61049 -15515315.52549  21259693.8134   21259696.6004   21259694.1364
     -2138.5654      -1666.4104         54.0004         49.0004
 -11143272.80549  -8674498.86248  22498377.5754   22498377.5994   22498377.3464
      2785.5384       2170.5544         52.0004         45.0004
 -14891478.95249 -11350599.01748  22232130.9414   22232131.9044   22232130.6174
     -2561.4954      -1995.9564         52.0004         45.0004
 -25850558.00849 -20098965.60949  20419673.9734   20419677.1354   20419673.8164
     -1156.3404       -901.0444         56.0004         50.0004
 06  1 11 13 18 33.0000000  0  9G 3G29G18G27G19G16G22G21G15
 -23216165.31749 -18048640.01649  20632703.1534   20632705.8714   20632702.9974
      1442.2454       1123.8454         56.0004         50.0004
    -42332.73748    -28784.80047  25160188.5244   25160193.1164   25160189.3724
       179.7634        140.0824         42.0004         36.0004
 -17883537.57449 -13887959.95248  22015797.8724   22015799.9414   22015798.2864
       702.8874        547.7154         53.0004         46.0004
  -3144914.57647  -2403270.07047  24938120.9504   24938126.1324   24938121.2254
       853.9314        665.3974         41.0004         37.0004
  -9031400.71849  -6996646.43848  23422320.2154   23422321.3304   23422319.9104
      2970.7204       2314.8644         48.0004         43.0004
 -19989373.61949 -15513648.77949  21260100.9234   21260103.5934   21260101.3044
     -2138.7524      -1666.5454         55.0004         49.0004
 -11146057.94549  -8676669.09748  22497847.3884   22497848.5704   22497847.2454
      2785.4494       2170.5094         51.0004         45.0004
 -14888917.03049 -11348602.71148  22232618.4924   22232619.9014   22232618.6364
     -2561.6404      -1996.0654         52.0004         45.0004
 -25849401.23949 -20098064.23049  20419894.1754   20419896.9774   20419893.7184
     -1156.4994       -901.1504         56.0004         50.0004
 06  1 11 13 18 34.0000000  0  9G 3G29G18G27G19G16G22G21G15
 -23217606.80949 -18049763.25649  20632428.8304   20632431.7614   20632428.6534
      1441.3314       1123.1294         56.0004         50.0004
    -42511.79047    -28924.32047  25160154.6184   25160159.7684   25160155.1834
       178.3814        138.9924         41.0004         36.0004
 -17884239.62949 -13888507.00748  22015664.3004   22015666.9484   22015664.2354
       701.7624        546.8394         53.0004         46.0004
  -3145767.50247  -2403934.68947  24937958.5004   24937963.5524   24937958.8364
       852.6134        664.3744         40.0004         37.0004
  -9034370.75449  -6998960.75348  23421755.0274   23421754.7704   23421753.6974
      2970.0544       2314.3394         48.0004         43.0004
 -19987234.04549 -15511981.57749  21260508.1594   21260510.7464   21260508.4864
     -2139.9154      -1667.4564         55.0004         49.0004
 -11148842.63649  -8678838.98648  22497317.2934   22497318.3564   22497317.5224
      2784.4784       2169.7334         51.0004         45.0004
 -14886354.74749 -11346606.13048  22233106.0724   22233107.3934   22233104.9644
     -2562.7214      -1996.9044         52.0004         45.0004
 -25848243.91249 -20097162.41649  20420114.4584   20420117.4664   20420113.9864
     -1157.6594       -902.0644         56.0004         50.0004
 06  1 11 13 18 35.0000000  0  9G 3G29G18G27G19G16G22G21G15
 -23219047.88949 -18050886.17649  20632154.6474   20632157.6304   20632154.4744
      1440.7384       1122.6594         56.0004         50.0004
    -42690.27648    -29063.40247  25160120.5844   25160126.4074   25160121.2364
       178.3034        138.9334         42.0004         36.0004
 -17884941.05249 -13889053.57348  22015530.9424   22015532.6564   22015530.8174
       700.8974        546.1504         53.0004         46.0004
  -3146619.81747  -2404598.83047  24937796.1104   24937802.2444   24937797.1494
       851.0494        663.1484         38.0004         37.0004
  -9037340.67949  -7001274.98248  23421189.7864   23421189.9824   23421189.1064
      2969.5864       2313.9634         48.0004         43.0004
 -19985093.96549 -15510313.98449  21260915.4494   21260918.1014   21260915.4194
     -2140.5954      -1667.9984         55.0004         49.0004
 -11151626.93849  -8681008.57448  22496787.2804   22496789.0314   22496787.1674
      2783.9274       2169.2914         51.0004         45.0004
 -14883792.19149 -11344609.33648  22233593.5964   22233595.4424   22233593.6114
     -2562.9924      -1997.1594         52.0004         45.0004
 -25847086.07749 -20096260.20649  20420334.7974   20420338.0094   20420334.4354
     -1158.3114       -902.5824         56.0004         50.0004
 06  1 11 13 18 36.0000000  0  9G 3G29G18G27G19G16G22G21G15
 -23220488.58049 -18052008.79249  20631880.4984   20631883.3694   20631880.2754
      1440.6994       1122.6204         56.0004         50.0004
    -42868.17448    -29202.02247  25160086.7834   25160092.0554   25160088.6324
       177.6384        138.4184         42.0004         36.0004
 -17885641.86649 -13889599.66048  22015397.5804   22015399.6634   22015397.2684
       700.6404        545.9374         53.0004         46.0004
  -3147471.66247  -2405262.60647  24937633.7944   24937639.7194   24937635.7584
       851.9434        663.8494         39.0004         37.0004
  -9040310.51049  -7003589.13448  23420624.5154   23420625.9214   23420624.0984
      2970.0004       2314.2944         48.0004         42.0004
 -19982953.37449 -15508645.99049  21261322.8054   21261325.4294   21261322.9034
     -2140.6254      -1668.0224         55.0004         49.0004
 -11154410.86449  -8683177.86548  22496257.3274   22496258.6684   22496257.0224
      2783.9214       2169.2774         51.0004         45.0004
 -14881229.32949 -11342612.30048  22234081.3284   22234082.2254   22234080.6584
     -2562.9644      -1997.1154         52.0004         45.0004
 -25845927.74949 -20095357.61349  20420555.2544   20420558.2574   20420554.6654
     -1158.3544       -902.6114         56.0004         50.0004
 06  1 11 13 18 37.0000000  0  9G 3G29G18G27G19G16G22G21G15
 -23221928.86249 -18053131.08849  20631606.4414   20631609.2254   20631606.2164
      1440.7274       1122.6584         56.0004         50.0004
    -43045.49547    -29340.19647  25160053.2574   25160058.1064   25160055.1004
       177.6894        138.4724         41.0004         36.0004
 -17886342.05149 -13890145.25648  22015264.2924   22015266.6014   22015264.4394
       700.6354        545.9634         53.0004         46.0004
  -3148322.98447  -2405925.97647  24937471.3454   24937478.3444   24937473.1764
       851.7904        663.7374         40.0004         37.0004
  -9043280.22748  -7005903.20048  23420059.3254   23420060.4584   23420058.7004
      2970.4514       2314.6434         47.0004         42.0004
 -19980812.28149 -15506977.60749  21261730.2444   21261732.6824   21261730.4584
     -2140.6424      -1668.0204         55.0004         49.0004
 -11157194.40849  -8685346.85848  22495727.4834   22495728.9394   22495727.7634
      2784.0094       2169.3784         51.0004         45.0004
 -14878666.20249 -11340615.05848  22234569.0254   22234570.4124   22234568.9154
     -2562.5184      -1996.7464         52.0004         45.0004
 -25844768.91249 -20094454.62249  20420775.7724   20420778.6144   20420775.3274
     -1158.4364       -902.6674         56.0004         50.0004
 06  1 11 13 18 38.0000000  0  9G 3G29G18G27G19G16G22G21G15
 -23223368.65949 -18054253.00949  20631332.3994   20631335.0694   20631332.1434
      1439.0594       1121.3374         56.0004         50.0004
    -43222.15047    -29477.85047  25160019.5704   25160025.1134   25160019.6674
       176.0844        137.2144         41.0004         36.0004
 -17887041.53349 -13890690.30448  22015131.1664   22015133.3564   22015131.1724
       698.6094        544.3664         53.0004         46.0004
  -3149173.62847  -2406588.81647  24937309.6684   24937317.0794   24937312.3694
       850.2794        662.5564         39.0004         37.0004
  -9046249.73249  -7008217.09948  23419494.2344   23419495.2074   23419493.9694
      2968.9204       2313.4404         48.0004         42.0004
 -19978670.58749 -15505308.75349  21262137.8464   21262140.1874   21262137.8934
     -2142.5744      -1669.5414         55.0004         48.0004
 -11159977.48349  -8687515.48748  22495197.8414   22495199.0344   22495198.1394
      2782.3384       2168.0404         51.0004         45.0004
 -14876102.69549 -11338617.51948  22235056.7754   22235058.0864   22235056.3714
     -2564.1754      -1998.0694         52.0004         45.0004
 -25843609.48349 -20093551.17249  20420996.4364   20420999.3844   20420995.9684
     -1160.3184       -904.1454         56.0004         50.0004
 06  1 11 13 18 39.0000000  0  9G 3G29G18G27G19G16G22G21G15
 -23224808.09449 -18055374.64749  20631058.3954   20631061.4854   20631058.4004
      1439.1144       1121.3854         56.0004         50.0004
    -43398.24747    -29615.06647  25159985.9944   25159990.9034   25159984.9304
       175.2544        136.5514         41.0004         36.0004
 -17887740.41949 -13891234.89048  22014998.1374   22015000.5474   22014998.5104
       698.3714        544.1804         53.0004         46.0004
  -3150023.83247  -2407251.31047  24937148.1304   24937154.4804   24937150.2044
       849.6984        662.0924         40.0004         37.0004
  -9049219.16749  -7010530.94548  23418929.1914   23418930.6504   23418929.1804
      2969.2424       2313.6994         48.0004         43.0004
 -19976528.41349 -15503639.52949  21262545.5574   21262547.7774   21262545.5814
     -2142.5924      -1669.5414         55.0004         49.0004
 -11162760.20249  -8689683.83848  22494668.3494   22494670.3574   22494669.2574
      2782.4624       2168.1564         51.0004         45.0004
 -14873538.92849 -11336619.77748  22235544.6424   22235546.2154   22235544.9684
     -2563.9474      -1997.8824         52.0004         45.0004
 -25842449.58849 -20092647.35749  20421217.1364   20421219.9314   20421216.6554
     -1160.3174       -904.1434         56.0004         50.0004
 06  1 11 13 18 40.0000000  0  9G 3G29G18G27G19G16G22G21G15
 -23226247.07849 -18056495.93249  20630784.4984   20630787.4574   20630784.1374
      1439.1214       1121.3934         56.0004         50.0004
    -43573.72747    -29751.80047  25159952.4874   25159956.3154   25159951.5964
       175.4474        136.7214         41.0004         36.0004
 -17888438.63349 -13891778.95348  22014865.2714   22014867.8014   22014864.8604
       698.2154        544.0674         53.0004         46.0004
  -3150873.44547  -2407913.34247  24936986.7254   24936992.9124   24936988.6394
       849.0364        661.5824         41.0004         37.0004
  -9052188.44348  -7012844.66248  23418364.0594   23418364.6254   23418363.3004
      2969.4974       2313.8934         47.0004         43.0004
 -19974385.67749 -15501969.86349  21262953.4184   21262955.9034   21262953.1554
     -2142.7344      -1669.6644         55.0004         49.0004
 -11165542.49349  -8691851.85748  22494138.9084   22494140.2664   22494139.0064
      2782.3524       2168.0574         51.0004         45.0004
 -14870974.80949 -11334621.76548  22236032.5884   22236034.5794   22236032.2214
     -2564.0594      -1997.9774         52.0004         45.0004
 -25841289.13349 -20091743.10649  20421437.9344   20421440.6874   20421437.4614
     -1160.5264       -904.3124         56.0004         50.0004
 06  1 11 13 18 41.0000000  0  9G 3G29G18G27G19G16G22G21G15
 -23227685.71549 -18057616.94749  20630510.6454   20630513.5224   20630510.4644
      1438.0694       1120.5624         56.0004         50.0004
    -43748.68447    -29888.13247  25159919.3444   25159922.9744   25159918.9534
       174.4024        135.8964         41.0004         36.0004
 -17889136.28449 -13892322.57548  22014732.4794   22014735.6334   22014732.8914
       696.9874        543.1004         53.0004         46.0004
  -3151722.56247  -2408574.98847  24936825.3134   24936831.2214   24936826.2804
       848.5334        661.1954         39.0004         37.0004
  -9055157.66348  -7015158.33848  23417798.9314   23417799.2064   23417797.8714
      2968.7674       2313.3164         47.0004         42.0004
 -19972242.49149 -15500299.85249  21263361.3234   21263363.3134   21263361.2284
     -2143.6994      -1670.4194         55.0004         49.0004
 -11168324.45149  -8694019.61748  22493609.6664   22493612.0394   22493610.2054
      2781.4154       2167.3134         51.0004         45.0004
 -14868410.47549 -11332623.58548  22236520.4654   22236521.2624   22236520.5254
     -2564.6464      -1998.4254         52.0004         45.0004
 -25840128.23749 -20090838.51249  20421658.7744   20421661.6184   20421658.2094
     -1161.5134       -905.0834         56.0004         50.0004
 06  1 11 13 18 42.0000000  0  9G 3G29G18G27G19G16G22G21G15
 -23229123.91149 -18058737.62049  20630236.9244   20630239.9764   20630236.7264
      1436.8364       1119.6054         56.0004         50.0004
    -43923.01247    -30023.97147  25159886.2134   25159890.0284   25159885.1274
       173.1744        134.9364         41.0004         36.0004
 -17889833.27149 -13892865.67948  22014599.9434   22014602.1094   22014600.1154
       695.4674        541.9044         53.0004         46.0004
  -3152571.12147  -2409236.20047  24936663.6034   24936669.4924   24936663.6184
       846.7114        659.7714         40.0004         37.0004
  -9058126.73148  -7017471.90448  23417234.0174   23417235.0534   23417232.4334
      2967.7034       2312.4794         47.0004         43.0004
 -19970098.75349 -15498629.40949  21263769.3024   21263771.5354   21263769.1954
     -2145.0904      -1671.5124         55.0004         49.0004
 -11171105.99149  -8696187.04448  22493080.4864   22493081.9264   22493080.8214
      2780.1084       2166.3014         52.0004         45.0004
 -14865845.80649 -11330625.14448  22237008.4614   22237010.2194   22237008.5914
     -2565.9994      -1999.5014         52.0004         45.0004
 -25838966.79549 -20089933.49249  20421879.6934   20421882.6984   20421879.3754
     -1162.9454       -906.1974         56.0004         50.0004
 06  1 11 13 18 43.0000000  0  9G 3G29G18G27G19G16G22G21G15
 -23230561.67249 -18059857.95249  20629963.3104   20629966.5134   20629963.4304
      1438.1084       1120.6104         56.0004         50.0004
    -44096.72947    -30159.33447  25159852.7654   25159855.7664   25159851.6814
       174.0884        135.6604         41.0004         36.0004
 -17890529.61849 -13893408.29148  22014467.5634   22014469.7894   22014467.2824
       696.5714        542.7874         53.0004         46.0004
  -3153419.11047  -2409896.96747  24936502.1354   24936507.5214   24936503.0364
       848.1094        660.8614         40.0004         37.0004
  -9061095.66448  -7019785.35648  23416669.0634   23416670.5964   23416667.8754
      2969.4944       2313.8764         47.0004         43.0004
 -19967954.47349 -15496958.54249  21264177.3874   21264179.5684   21264176.9154
     -2143.9814      -1670.6354         55.0004         49.0004
 -11173887.12249  -8698354.16048  22492551.4184   22492552.5384   22492551.2714
      2781.6114       2167.4924         52.0004         45.0004
 -14863280.82949 -11328626.45848  22237496.4564   22237498.4314   22237495.5674
     -2564.6844      -1998.4434         52.0004         45.0004
 -25837804.82349 -20089028.05949  20422100.7564   20422103.7994   20422100.5024
     -1161.7844       -905.2834         56.0004         50.0004
 06  1 11 13 18 44.0000000  0  9G 3G29G18G27G19G16G22G21G15
 -23231998.97749 -18060977.92949  20629689.7964   20629692.7384   20629689.6754
      1437.1774       1119.8694         56.0004         50.0004
    -44269.80347    -30294.19347  25159819.6644   25159822.8584   25159818.3504
       172.6274        134.4984         41.0004         36.0004
 -17891225.27149 -13893950.35748  22014335.2274   22014337.0304   22014334.7864
       695.3934        541.8704         53.0004         46.0004
  -3154266.54147  -2410557.30247  24936340.9084   24936346.6954   24936341.8434
       847.8164        660.6244         40.0004         37.0004
  -9064064.43148  -7022098.67848  23416104.2104   23416105.3314   23416103.1964
      2968.8994       2313.4114         47.0004         43.0004
 -19965809.62649 -15495287.23249  21264585.6354   21264587.7804   21264585.3704
     -2145.0234      -1671.4584         55.0004         49.0004
 -11176667.80449  -8700520.92448  22492022.3724   22492024.3344   22492021.7864
      2780.6484       2166.7154         51.0004         45.0004
 -14860715.50349 -11326627.50548  22237984.6964   22237986.9584   22237984.2934
     -2565.2344      -1998.8904         52.0004         45.0004
 -25836642.28849 -20088122.18749  20422321.9024   20422325.0324   20422321.5434
     -1162.7374       -906.0344         56.0004         50.0004
 06  1 11 13 18 45.0000000  0  9G 3G29G18G27G19G16G22G21G15
 -23233435.94449 -18062097.64549  20629416.3784   20629419.5674   20629416.1914
      1437.2574       1119.9504         56.0004         50.0004
    -44442.37147    -30428.65547  25159786.5854   25159789.9384   25159786.6174
       172.3494        134.3124         41.0004         36.0004
 -17891920.36549 -13894491.98948  22014202.9574   22014205.0514   22014202.9894
       695.3164        541.8224         53.0004         46.0004
  -3155113.45647  -2411217.23447  24936179.3884   24936185.2264   24936179.7264
       846.6274        659.7064         40.0004         37.0004
  -9067033.13549  -7024411.94948  23415539.3424   23415539.8244   23415537.4714
      2969.0924       2313.5794         48.0004         42.0004
 -19963664.32549 -15493615.56849  21264993.9224   21264995.6904   21264993.6924
     -2145.0434      -1671.4504         55.0004         49.0004
 -11179448.15949  -8702687.43248  22491493.3734   22491494.2104   22491493.1444
      2780.6484       2166.7584         52.0004         45.0004
 -14858149.94149 -11324628.36448  22238472.7924   22238474.3684   22238472.7274
     -2565.1104      -1998.7894         52.0004         45.0004
 -25835479.31349 -20087215.97449  20422543.1314   20422546.5224   20422542.9414
     -1162.7024       -905.9904         55.0004         50.0004
 06  1 11 13 18 46.0000000  0  9G 3G29G18G27G19G16G22G21G15
 -23234872.49249 -18063217.03449  20629143.0464   20629146.1444   20629142.9404
      1436.4344       1119.3054         56.0004         50.0004
    -44614.33747    -30562.65547  25159753.5644   25159757.5264   25159755.3284
       171.8764        133.9334         41.0004         36.0004
 -17892614.82249 -13895033.12248  22014070.7654   22014073.1804   22014070.8964
       694.2504        540.9784         53.0004         46.0004
  -3155959.89047  -2411876.79047  24936018.2884   24936025.0284   24936019.1234
       846.7754        659.8274         40.0004         37.0004
  -9070001.73149  -7026725.13848  23414974.3714   23414975.4404   23414974.3204
      2968.6684       2313.2384         48.0004         43.0004
 -19961518.51049 -15491943.50549  21265402.2874   21265404.1854   21265402.0424
     -2145.9284      -1672.1454         55.0004         49.0004
 -11182228.12349  -8704853.64248  22490964.5204   22490965.4734   22490964.5234
      2779.8964       2166.1664         52.0004         45.0004
 -14855584.08349 -11322629.00148  22238961.1384   22238963.1424   22238960.3114
     -2565.9814      -1999.4544         52.0004         45.0004
 -25834315.82449 -20086309.36149  20422764.4474   20422767.5154   20422764.3014
     -1163.6364       -906.7284         56.0004         50.0004
 06  1 11 13 18 47.0000000  0  9G 3G29G18G27G19G16G22G21G15
 -23236308.52649 -18064336.02149  20628869.8434   20628872.9084   20628869.6174
      1435.8344       1118.8344         56.0004         50.0004
    -44785.61547    -30696.11547  25159721.1884   25159726.6334   25159724.5534
       170.8334        133.1054         41.0004         36.0004
 -17893308.55149 -13895573.68748  22013938.6954   22013940.9204   22013938.6364
       693.5074        540.4004         53.0004         46.0004
  -3156805.57647  -2412535.76847  24935857.3374   24935864.0624   24935858.5494
       845.1434        658.5564         41.0004         37.0004
  -9072970.08848  -7029038.13748  23414409.4344   23414411.4374   23414408.2364
      2968.4884       2313.1184         47.0004         43.0004
 -19959372.07549 -15490270.95849  21265810.6524   21265812.8634   21265810.2024
     -2146.5434      -1672.6264         55.0004         49.0004
 -11185007.59149  -8707019.45348  22490435.7074   22490436.7204   22490435.0844
      2779.3884       2165.7604         52.0004         45.0004
 -14853017.83149 -11320629.31848  22239449.4794   22239450.6684   22239449.1694
     -2566.3014      -1999.7044         52.0004         45.0004
 -25833151.71849 -20085402.26349  20422985.9024   20422989.1294   20422985.9294
     -1164.3564       -907.2904         55.0004         50.0004
 06  1 11 13 18 48.0000000  0  9G 3G29G18G27G19G16G22G21G15
 -23237744.24149 -18065454.75949  20628596.6204   20628599.7814   20628596.3534
      1436.2164       1119.1344         56.0004         50.0004
    -44956.40047    -30829.19747  25159688.6014   25159694.4414   25159692.6254
       171.1954        133.4084         41.0004         36.0004
 -17894001.72249 -13896113.82448  22013806.7134   22013809.2554   22013806.9794
       693.5384        540.4184         53.0004         46.0004
  -3157650.91747  -2413194.47547  24935697.0344   24935703.2064   24935697.5864
       845.1794        658.5834         41.0004         37.0004
  -9075938.41148  -7031351.11648  23413844.6944   23413846.6504   23413843.3204
      2968.9804       2313.4874         47.0004         43.0004
 -19957225.20349 -15488598.07249  21266219.1284   21266221.1944   21266218.9634
     -2146.4614      -1672.5654         54.0004         49.0004
 -11187786.74249  -8709185.02048  22489906.9464   22489907.5644   22489906.6174
      2779.5934       2165.9244         51.0004         45.0004
 -14850451.35849 -11318629.47148  22239937.9254   22239939.7574   22239937.1254
     -2566.0194      -1999.4684         51.0004         45.0004
 -25831987.18949 -20084494.84049  20423207.4514   20423211.0524   20423207.3974
     -1164.0804       -907.0704         55.0004         50.0004
